[{"name":"Shanghai","cc":"CN","country":"China","lat":31.2222,"lon":121.4581,"population":14608512},{"name":"Buenos Aires","cc":"AR","country":"Argentina","lat":-34.6131,"lon":-58.3772,"population":13076300},{"name":"Mumbai","cc":"IN","country":"India","lat":19.0728,"lon":72.8826,"population":12691836},{"name":"Mexico City","cc":"MX","country":"Mexico","lat":19.4285,"lon":-99.1277,"population":12294193},{"name":"Karachi","cc":"PK","country":"Pakistan","lat":24.9056,"lon":67.0822,"population":11624219},{"name":"İstanbul","cc":"TR","country":"Türkiye","lat":41.0138,"lon":28.9497,"population":11174257},{"name":"Delhi","cc":"IN","country":"India","lat":28.6538,"lon":77.229,"population":10927986},{"name":"Manila","cc":"PH","country":"Philippines","lat":14.6042,"lon":120.9822,"population":10444527},{"name":"Moscow","cc":"RU","country":"Russia","lat":55.7522,"lon":37.6156,"population":10381222},{"name":"Dhaka","cc":"BD","country":"Bangladesh","lat":23.7104,"lon":90.4074,"population":10356500},{"name":"Seoul","cc":"KR","country":"South Korea","lat":37.5683,"lon":126.9778,"population":10349312},{"name":"São Paulo","cc":"BR","country":"Brazil","lat":-23.5475,"lon":-46.6361,"population":10021295},{"name":"Lagos","cc":"NG","country":"Nigeria","lat":6.4531,"lon":3.3958,"population":9000000},{"name":"Jakarta","cc":"ID","country":"Indonesia","lat":-6.2146,"lon":106.8451,"population":8540121},{"name":"Tokyo","cc":"JP","country":"Japan","lat":35.6895,"lon":139.6917,"population":8336599},{"name":"Zhumadian","cc":"CN","country":"China","lat":32.9794,"lon":114.0294,"population":8263100},{"name":"New York City","cc":"US","country":"United States","lat":40.7143,"lon":-74.006,"population":8175133},{"name":"Taipei","cc":"TW","country":"Taiwan","lat":25.0478,"lon":121.5319,"population":7871900},{"name":"Kinshasa","cc":"CD","country":"Congo - Kinshasa","lat":-4.3214,"lon":15.3081,"population":7785965},{"name":"Lima","cc":"PE","country":"Peru","lat":-12.0432,"lon":-77.0282,"population":7737002},{"name":"Cairo","cc":"EG","country":"Egypt","lat":30.0626,"lon":31.2497,"population":7734614},{"name":"Bogotá","cc":"CO","country":"Colombia","lat":4.6097,"lon":-74.0817,"population":7674366},{"name":"City of London","cc":"GB","country":"United Kingdom","lat":51.5128,"lon":-0.0918,"population":7556900},{"name":"London","cc":"GB","country":"United Kingdom","lat":51.5085,"lon":-0.1257,"population":7556900},{"name":"Beijing","cc":"CN","country":"China","lat":39.9075,"lon":116.3972,"population":7480601},{"name":"Tehrān","cc":"IR","country":"Iran","lat":35.6944,"lon":51.4215,"population":7153309},{"name":"Nanchong","cc":"CN","country":"China","lat":30.7951,"lon":106.0847,"population":7150000},{"name":"Hong Kong","cc":"HK","country":"Hong Kong SAR China","lat":22.2855,"lon":114.1577,"population":7012738},{"name":"Lahore","cc":"PK","country":"Pakistan","lat":31.5497,"lon":74.3436,"population":6310888},{"name":"Rio de Janeiro","cc":"BR","country":"Brazil","lat":-22.9028,"lon":-43.2075,"population":6023699},{"name":"Baghdad","cc":"IQ","country":"Iraq","lat":33.3406,"lon":44.4009,"population":5672513},{"name":"Tai’an","cc":"CN","country":"China","lat":36.1853,"lon":117.12,"population":5499000},{"name":"Bangkok","cc":"TH","country":"Thailand","lat":13.754,"lon":100.5014,"population":5104476},{"name":"Bangalore","cc":"IN","country":"India","lat":12.9719,"lon":77.5937,"population":5104047},{"name":"Saint Petersburg","cc":"RU","country":"Russia","lat":59.9386,"lon":30.3141,"population":5028000},{"name":"Yueyang","cc":"CN","country":"China","lat":29.3746,"lon":113.0948,"population":5000000},{"name":"Santiago","cc":"CL","country":"Chile","lat":-33.4569,"lon":-70.6483,"population":4837295},{"name":"Kaifeng","cc":"CN","country":"China","lat":34.7986,"lon":114.3074,"population":4800000},{"name":"Kolkata","cc":"IN","country":"India","lat":22.5626,"lon":88.363,"population":4631392},{"name":"Sydney","cc":"AU","country":"Australia","lat":-33.8678,"lon":151.2073,"population":4627345},{"name":"Toronto","cc":"CA","country":"Canada","lat":43.7001,"lon":-79.4163,"population":4612191},{"name":"Rangoon","cc":"MM","country":"Myanmar (Burma)","lat":16.8053,"lon":96.1561,"population":4477638},{"name":"Chennai","cc":"IN","country":"India","lat":13.0878,"lon":80.2785,"population":4328063},{"name":"Melbourne","cc":"AU","country":"Australia","lat":-37.814,"lon":144.9633,"population":4246375},{"name":"Riyadh","cc":"SA","country":"Saudi Arabia","lat":24.6877,"lon":46.7219,"population":4205961},{"name":"Wuhan","cc":"CN","country":"China","lat":30.5833,"lon":114.2667,"population":4184206},{"name":"Chongqing","cc":"CN","country":"China","lat":29.5628,"lon":106.5528,"population":3967028},{"name":"Chengdu","cc":"CN","country":"China","lat":30.6667,"lon":104.0667,"population":3950437},{"name":"Chittagong","cc":"BD","country":"Bangladesh","lat":22.3384,"lon":91.8317,"population":3920222},{"name":"Alexandria","cc":"EG","country":"Egypt","lat":31.2156,"lon":29.9553,"population":3811516},{"name":"Los Angeles","cc":"US","country":"United States","lat":34.0522,"lon":-118.2437,"population":3792621},{"name":"Tianjin","cc":"CN","country":"China","lat":39.1422,"lon":117.1767,"population":3766207},{"name":"Ahmedabad","cc":"IN","country":"India","lat":23.0258,"lon":72.5873,"population":3719710},{"name":"Busan","cc":"KR","country":"South Korea","lat":35.1028,"lon":129.0403,"population":3678555},{"name":"Abidjan","cc":"CI","country":"Côte d’Ivoire","lat":5.3097,"lon":-4.0127,"population":3677115},{"name":"Kano","cc":"NG","country":"Nigeria","lat":12.0001,"lon":8.5167,"population":3626068},{"name":"Hyderabad","cc":"IN","country":"India","lat":17.384,"lon":78.4564,"population":3597816},{"name":"Puyang","cc":"CN","country":"China","lat":29.4568,"lon":119.8887,"population":3590000},{"name":"Yokohama-shi","cc":"JP","country":"Japan","lat":35.4478,"lon":139.6425,"population":3574443},{"name":"Ibadan","cc":"NG","country":"Nigeria","lat":7.3878,"lon":3.8964,"population":3565108},{"name":"Singapore","cc":"SG","country":"Singapore","lat":1.2897,"lon":103.8501,"population":3547809},{"name":"Ankara","cc":"TR","country":"Türkiye","lat":39.9199,"lon":32.8543,"population":3517182},{"name":"Shenyang","cc":"CN","country":"China","lat":41.7922,"lon":123.4328,"population":3512192},{"name":"Tianshui","cc":"CN","country":"China","lat":34.5795,"lon":105.7424,"population":3500000},{"name":"Ho Chi Minh City","cc":"VN","country":"Vietnam","lat":10.823,"lon":106.6297,"population":3467331},{"name":"Shiyan","cc":"CN","country":"China","lat":32.6475,"lon":110.7781,"population":3460000},{"name":"Cape Town","cc":"ZA","country":"South Africa","lat":-33.9258,"lon":18.4232,"population":3433441},{"name":"Berlin","cc":"DE","country":"Germany","lat":52.5244,"lon":13.4105,"population":3426354},{"name":"Montréal","cc":"CA","country":"Canada","lat":45.5088,"lon":-73.5878,"population":3268513},{"name":"Madrid","cc":"ES","country":"Spain","lat":40.4165,"lon":-3.7026,"population":3255944},{"name":"Harbin","cc":"CN","country":"China","lat":45.75,"lon":126.65,"population":3229883},{"name":"Xi’an","cc":"CN","country":"China","lat":34.2583,"lon":108.9286,"population":3225812},{"name":"Pyongyang","cc":"KP","country":"North Korea","lat":39.0339,"lon":125.7543,"population":3222000},{"name":"Lanzhou","cc":"CN","country":"China","lat":36.057,"lon":103.8399,"population":3200000},{"name":"Guangzhou","cc":"CN","country":"China","lat":23.1167,"lon":113.25,"population":3152825},{"name":"Casablanca","cc":"MA","country":"Morocco","lat":33.5883,"lon":-7.6114,"population":3144909},{"name":"Durban","cc":"ZA","country":"South Africa","lat":-29.8579,"lon":31.0292,"population":3120282},{"name":"Nanjing","cc":"CN","country":"China","lat":32.0617,"lon":118.7778,"population":3087010},{"name":"Kabul","cc":"AF","country":"Afghanistan","lat":34.5281,"lon":69.1723,"population":3043532},{"name":"Shenzhen","cc":"CN","country":"China","lat":22.5455,"lon":114.0683,"population":3000000},{"name":"Caracas","cc":"VE","country":"Venezuela","lat":10.488,"lon":-66.8792,"population":3000000},{"name":"Pune","cc":"IN","country":"India","lat":18.5196,"lon":73.8554,"population":2935744},{"name":"Sūrat","cc":"IN","country":"India","lat":21.1959,"lon":72.8302,"population":2894504},{"name":"Jeddah","cc":"SA","country":"Saudi Arabia","lat":21.5169,"lon":39.2192,"population":2867446},{"name":"Kānpur","cc":"IN","country":"India","lat":26.4478,"lon":80.3463,"population":2823249},{"name":"Kiev","cc":"UA","country":"Ukraine","lat":50.4547,"lon":30.5238,"population":2797553},{"name":"Luanda","cc":"AO","country":"Angola","lat":-8.8368,"lon":13.2343,"population":2776168},{"name":"Quezon City","cc":"PH","country":"Philippines","lat":14.6488,"lon":121.0509,"population":2761720},{"name":"Addis Ababa","cc":"ET","country":"Ethiopia","lat":9.025,"lon":38.7469,"population":2757729},{"name":"Nairobi","cc":"KE","country":"Kenya","lat":-1.2833,"lon":36.8167,"population":2750547},{"name":"Taiyuan","cc":"CN","country":"China","lat":37.8694,"lon":112.5603,"population":2722475},{"name":"Salvador","cc":"BR","country":"Brazil","lat":-12.9711,"lon":-38.5108,"population":2711840},{"name":"Jaipur","cc":"IN","country":"India","lat":26.9196,"lon":75.7878,"population":2711758},{"name":"Dar es Salaam","cc":"TZ","country":"Tanzania","lat":-6.8235,"lon":39.2695,"population":2698652},{"name":"Chicago","cc":"US","country":"United States","lat":41.85,"lon":-87.65,"population":2695598},{"name":"Incheon","cc":"KR","country":"South Korea","lat":37.4536,"lon":126.7317,"population":2628000},{"name":"Yunfu","cc":"CN","country":"China","lat":22.9283,"lon":112.0395,"population":2612800},{"name":"Navi Mumbai","cc":"IN","country":"India","lat":19.0368,"lon":73.0158,"population":2600000},{"name":"Al Başrah","cc":"IQ","country":"Iraq","lat":30.533,"lon":47.7975,"population":2600000},{"name":"Ōsaka-shi","cc":"JP","country":"Japan","lat":34.6937,"lon":135.5022,"population":2592413},{"name":"Mogadishu","cc":"SO","country":"Somalia","lat":2.0371,"lon":45.3438,"population":2587183},{"name":"Daegu","cc":"KR","country":"South Korea","lat":35.8703,"lon":128.5911,"population":2566540},{"name":"Rome","cc":"IT","country":"Italy","lat":41.8947,"lon":12.4839,"population":2563241},{"name":"Changchun","cc":"CN","country":"China","lat":43.88,"lon":125.3228,"population":2537421},{"name":"Faisalābād","cc":"PK","country":"Pakistan","lat":31.4167,"lon":73.0833,"population":2506595},{"name":"İzmir","cc":"TR","country":"Türkiye","lat":38.4127,"lon":27.1384,"population":2500603},{"name":"Zhongshan","cc":"CN","country":"China","lat":21.3199,"lon":110.5723,"population":2493400},{"name":"Dakar","cc":"SN","country":"Senegal","lat":14.6937,"lon":-17.4441,"population":2476400},{"name":"Lucknow","cc":"IN","country":"India","lat":26.8393,"lon":80.9231,"population":2472011},{"name":"Al Jīzah","cc":"EG","country":"Egypt","lat":30.0081,"lon":31.2109,"population":2443203},{"name":"Fortaleza","cc":"BR","country":"Brazil","lat":-3.7172,"lon":-38.5431,"population":2400000},{"name":"Cali","cc":"CO","country":"Colombia","lat":3.4372,"lon":-76.5225,"population":2392877},{"name":"Surabaya","cc":"ID","country":"Indonesia","lat":-7.2492,"lon":112.7508,"population":2374658},{"name":"Belo Horizonte","cc":"BR","country":"Brazil","lat":-19.9208,"lon":-43.9378,"population":2373224},{"name":"Grand Dakar","cc":"SN","country":"Senegal","lat":14.7133,"lon":-17.4547,"population":2352057},{"name":"Mashhad","cc":"IR","country":"Iran","lat":36.3156,"lon":59.568,"population":2307177},{"name":"Brooklyn","cc":"US","country":"United States","lat":40.6501,"lon":-73.9496,"population":2300664},{"name":"Borough of Queens","cc":"US","country":"United States","lat":40.6815,"lon":-73.8365,"population":2272771},{"name":"Nāgpur","cc":"IN","country":"India","lat":21.15,"lon":79.1,"population":2228018},{"name":"Maracaibo","cc":"VE","country":"Venezuela","lat":10.6317,"lon":-71.6406,"population":2225000},{"name":"Raigarh Fort","cc":"IN","country":"India","lat":18.25,"lon":73.4333,"population":2207929},{"name":"Brasília","cc":"BR","country":"Brazil","lat":-15.7797,"lon":-47.9297,"population":2207718},{"name":"Santo Domingo","cc":"DO","country":"Dominican Republic","lat":18.5001,"lon":-69.9886,"population":2201941},{"name":"Nagoya-shi","cc":"JP","country":"Japan","lat":35.1815,"lon":136.9064,"population":2191279},{"name":"Brisbane","cc":"AU","country":"Australia","lat":-27.4679,"lon":153.0281,"population":2189878},{"name":"Havana","cc":"CU","country":"Cuba","lat":23.133,"lon":-82.383,"population":2163824},{"name":"Paris","cc":"FR","country":"France","lat":48.8534,"lon":2.3488,"population":2138551},{"name":"Houston","cc":"US","country":"United States","lat":29.7633,"lon":-95.3633,"population":2099451},{"name":"Changsha","cc":"CN","country":"China","lat":28.1987,"lon":112.9709,"population":2073938},{"name":"Jinan","cc":"CN","country":"China","lat":36.6683,"lon":116.9972,"population":2069266},{"name":"Al Mawşil al Jadīdah","cc":"IQ","country":"Iraq","lat":36.3309,"lon":43.0906,"population":2065597},{"name":"Dalian","cc":"CN","country":"China","lat":38.9122,"lon":121.6022,"population":2035307},{"name":"Johannesburg","cc":"ZA","country":"South Africa","lat":-26.2023,"lon":28.0436,"population":2026469},{"name":"Kowloon","cc":"HK","country":"Hong Kong SAR China","lat":22.3167,"lon":114.1833,"population":2019533},{"name":"Al Başrat al Qadīmah","cc":"IQ","country":"Iraq","lat":30.4953,"lon":47.8169,"population":2015483},{"name":"Zhengzhou","cc":"CN","country":"China","lat":34.7578,"lon":113.6486,"population":2014125},{"name":"Almaty","cc":"KZ","country":"Kazakhstan","lat":43.2565,"lon":76.9285,"population":2000900},{"name":"Medellín","cc":"CO","country":"Colombia","lat":6.2518,"lon":-75.5636,"population":1999979},{"name":"Shijiazhuang","cc":"CN","country":"China","lat":38.0414,"lon":114.4786,"population":1992474},{"name":"Tashkent","cc":"UZ","country":"Uzbekistan","lat":41.2647,"lon":69.2163,"population":1978028},{"name":"Algiers","cc":"DZ","country":"Algeria","lat":36.7525,"lon":3.042,"population":1977663},{"name":"Khartoum","cc":"SD","country":"Sudan","lat":15.5518,"lon":32.5324,"population":1974647},{"name":"Accra","cc":"GH","country":"Ghana","lat":5.556,"lon":-0.1969,"population":1963264},{"name":"Guayaquil","cc":"EC","country":"Ecuador","lat":-2.2058,"lon":-79.9079,"population":1952029},{"name":"Ordos","cc":"CN","country":"China","lat":39.6086,"lon":109.7816,"population":1940653},{"name":"Sanaa","cc":"YE","country":"Yemen","lat":15.3547,"lon":44.2067,"population":1937451},{"name":"Beirut","cc":"LB","country":"Lebanon","lat":33.8889,"lon":35.4944,"population":1916100},{"name":"Perth","cc":"AU","country":"Australia","lat":-31.9522,"lon":115.8614,"population":1896548},{"name":"Sapporo","cc":"JP","country":"Japan","lat":43.0642,"lon":141.3469,"population":1883027},{"name":"Jilin","cc":"CN","country":"China","lat":43.8508,"lon":126.5603,"population":1881977},{"name":"Hangzhou","cc":"CN","country":"China","lat":30.2937,"lon":120.1614,"population":1878129},{"name":"Bucharest","cc":"RO","country":"Romania","lat":44.4323,"lon":26.1063,"population":1877155},{"name":"Nanchang","cc":"CN","country":"China","lat":28.6833,"lon":115.8833,"population":1871351},{"name":"Camayenne","cc":"GN","country":"Guinea","lat":9.535,"lon":-13.6878,"population":1871242},{"name":"Vancouver","cc":"CA","country":"Canada","lat":49.2497,"lon":-123.1193,"population":1837969},{"name":"Indore","cc":"IN","country":"India","lat":22.7179,"lon":75.8333,"population":1837041},{"name":"Iztapalapa","cc":"MX","country":"Mexico","lat":19.3574,"lon":-99.0671,"population":1820888},{"name":"Ecatepec","cc":"MX","country":"Mexico","lat":19.6172,"lon":-99.066,"population":1806226},{"name":"Conakry","cc":"GN","country":"Guinea","lat":9.538,"lon":-13.6773,"population":1767200},{"name":"Maracay","cc":"VE","country":"Venezuela","lat":10.2469,"lon":-67.5958,"population":1754256},{"name":"Medan","cc":"ID","country":"Indonesia","lat":3.5833,"lon":98.6667,"population":1750971},{"name":"Rāwalpindi","cc":"PK","country":"Pakistan","lat":33.6007,"lon":73.0679,"population":1743101},{"name":"Minsk","cc":"BY","country":"Belarus","lat":53.9,"lon":27.5667,"population":1742124},{"name":"Budapest","cc":"HU","country":"Hungary","lat":47.498,"lon":19.0399,"population":1741041},{"name":"Mosul","cc":"IQ","country":"Iraq","lat":36.335,"lon":43.1189,"population":1739800},{"name":"Hamburg","cc":"DE","country":"Germany","lat":53.5753,"lon":10.0153,"population":1739117},{"name":"Curitiba","cc":"BR","country":"Brazil","lat":-25.4278,"lon":-49.2731,"population":1718421},{"name":"Warsaw","cc":"PL","country":"Poland","lat":52.2298,"lon":21.0118,"population":1702139},{"name":"Bandung","cc":"ID","country":"Indonesia","lat":-6.9039,"lon":107.6186,"population":1699719},{"name":"Soweto","cc":"ZA","country":"South Africa","lat":-26.2678,"lon":27.8585,"population":1695047},{"name":"Vienna","cc":"AT","country":"Austria","lat":48.2085,"lon":16.3721,"population":1691468},{"name":"Rabat","cc":"MA","country":"Morocco","lat":34.0133,"lon":-6.8325,"population":1655753},{"name":"Qingdao","cc":"CN","country":"China","lat":36.0986,"lon":120.3719,"population":1642245},{"name":"Guadalajara","cc":"MX","country":"Mexico","lat":20.6668,"lon":-103.3918,"population":1640589},{"name":"Barcelona","cc":"ES","country":"Spain","lat":41.3888,"lon":2.159,"population":1621537},{"name":"Pretoria","cc":"ZA","country":"South Africa","lat":-25.7449,"lon":28.1878,"population":1619438},{"name":"Aleppo","cc":"SY","country":"Syria","lat":36.2012,"lon":37.1612,"population":1602264},{"name":"Patna","cc":"IN","country":"India","lat":25.6022,"lon":85.1194,"population":1599920},{"name":"Bhopal","cc":"IN","country":"India","lat":23.2547,"lon":77.4029,"population":1599914},{"name":"Manaus","cc":"BR","country":"Brazil","lat":-3.1019,"lon":-60.025,"population":1598210},{"name":"Tangshan","cc":"CN","country":"China","lat":39.6333,"lon":118.1833,"population":1596949},{"name":"Xinyang","cc":"CN","country":"China","lat":32.1228,"lon":114.0656,"population":1590668},{"name":"Puebla de Zaragoza","cc":"MX","country":"Mexico","lat":19.0433,"lon":-98.2019,"population":1590256},{"name":"Kaduna","cc":"NG","country":"Nigeria","lat":10.5222,"lon":7.4383,"population":1582102},{"name":"Phnom Penh","cc":"KH","country":"Cambodia","lat":11.5625,"lon":104.916,"population":1573544},{"name":"Damascus","cc":"SY","country":"Syria","lat":33.5102,"lon":36.2913,"population":1569394},{"name":"Eşfahān","cc":"IR","country":"Iran","lat":32.6572,"lon":51.6776,"population":1547164},{"name":"Ludhiāna","cc":"IN","country":"India","lat":30.9002,"lon":75.8523,"population":1545368},{"name":"Harare","cc":"ZW","country":"Zimbabwe","lat":-17.8277,"lon":31.0534,"population":1542813},{"name":"Kōbe-shi","cc":"JP","country":"Japan","lat":34.6913,"lon":135.183,"population":1528478},{"name":"Philadelphia","cc":"US","country":"United States","lat":39.9523,"lon":-75.1638,"population":1526006},{"name":"Bekasi","cc":"ID","country":"Indonesia","lat":-6.2349,"lon":106.9896,"population":1520119},{"name":"Kaohsiung","cc":"TW","country":"Taiwan","lat":22.6163,"lon":120.3133,"population":1519711},{"name":"Ciudad Juárez","cc":"MX","country":"Mexico","lat":31.7333,"lon":-106.4833,"population":1512354},{"name":"Ürümqi","cc":"CN","country":"China","lat":43.801,"lon":87.6005,"population":1508225},{"name":"Manhattan","cc":"US","country":"United States","lat":40.7834,"lon":-73.9662,"population":1487536},{"name":"Asunción","cc":"PY","country":"Paraguay","lat":-25.3007,"lon":-57.6359,"population":1482200},{"name":"Recife","cc":"BR","country":"Brazil","lat":-8.0539,"lon":-34.8811,"population":1478098},{"name":"Daejeon","cc":"KR","country":"South Korea","lat":36.3214,"lon":127.4197,"population":1475221},{"name":"Kumasi","cc":"GH","country":"Ghana","lat":6.6885,"lon":-1.6244,"population":1468609},{"name":"Kota Bharu","cc":"MY","country":"Malaysia","lat":6.1333,"lon":102.2386,"population":1459994},{"name":"Kyoto","cc":"JP","country":"Japan","lat":35.0211,"lon":135.7539,"population":1459640},{"name":"Kuala Lumpur","cc":"MY","country":"Malaysia","lat":3.1412,"lon":101.6865,"population":1453975},{"name":"Karaj","cc":"IR","country":"Iran","lat":35.8327,"lon":50.9915,"population":1448075},{"name":"Phoenix","cc":"US","country":"United States","lat":33.4484,"lon":-112.074,"population":1445632},{"name":"Kathmandu","cc":"NP","country":"Nepal","lat":27.7017,"lon":85.3206,"population":1442271},{"name":"Palembang","cc":"ID","country":"Indonesia","lat":-2.9167,"lon":104.7458,"population":1441500},{"name":"Multān","cc":"PK","country":"Pakistan","lat":30.1956,"lon":71.4753,"population":1437230},{"name":"Hanoi","cc":"VN","country":"Vietnam","lat":21.0245,"lon":105.8412,"population":1431270},{"name":"Kharkiv","cc":"UA","country":"Ukraine","lat":49.9808,"lon":36.2527,"population":1430885},{"name":"Āgra","cc":"IN","country":"India","lat":27.1833,"lon":78.0167,"population":1430055},{"name":"Córdoba","cc":"AR","country":"Argentina","lat":-31.4135,"lon":-64.181,"population":1428214},{"name":"Tabrīz","cc":"IR","country":"Iran","lat":38.08,"lon":46.2919,"population":1424641},{"name":"Novosibirsk","cc":"RU","country":"Russia","lat":55.0415,"lon":82.9346,"population":1419007},{"name":"Gwangju","cc":"KR","country":"South Korea","lat":35.1547,"lon":126.9156,"population":1416938},{"name":"Bursa","cc":"TR","country":"Türkiye","lat":40.1927,"lon":29.084,"population":1412701},{"name":"Vadodara","cc":"IN","country":"India","lat":22.2994,"lon":73.2081,"population":1409476},{"name":"Belém","cc":"BR","country":"Brazil","lat":-1.4558,"lon":-48.5044,"population":1407737},{"name":"Fushun","cc":"CN","country":"China","lat":41.8558,"lon":123.9233,"population":1400646},{"name":"Quito","cc":"EC","country":"Ecuador","lat":-0.2298,"lon":-78.5249,"population":1399814},{"name":"Fukuoka-shi","cc":"JP","country":"Japan","lat":33.6064,"lon":130.4181,"population":1392289},{"name":"Antananarivo","cc":"MG","country":"Madagascar","lat":-18.9137,"lon":47.5361,"population":1391433},{"name":"Luoyang","cc":"CN","country":"China","lat":34.6836,"lon":112.4536,"population":1390581},{"name":"Hefei","cc":"CN","country":"China","lat":31.8639,"lon":117.2808,"population":1388904},{"name":"Hyderābād","cc":"PK","country":"Pakistan","lat":25.3924,"lon":68.3737,"population":1386330},{"name":"Borough of Bronx","cc":"US","country":"United States","lat":40.8499,"lon":-73.8664,"population":1385108},{"name":"Valencia","cc":"VE","country":"Venezuela","lat":10.162,"lon":-68.0076,"population":1385083},{"name":"Gujrānwāla","cc":"PK","country":"Pakistan","lat":32.1617,"lon":74.1883,"population":1384471},{"name":"Barranquilla","cc":"CO","country":"Colombia","lat":10.9685,"lon":-74.7813,"population":1380425},{"name":"Guankou","cc":"CN","country":"China","lat":28.1586,"lon":113.6271,"population":1380000},{"name":"Tijuana","cc":"MX","country":"Mexico","lat":32.5027,"lon":-117.0037,"population":1376457},{"name":"Lubumbashi","cc":"CD","country":"Congo - Kinshasa","lat":-11.6609,"lon":27.4794,"population":1373770},{"name":"Porto Alegre","cc":"BR","country":"Brazil","lat":-30.0331,"lon":-51.23,"population":1372741},{"name":"Tangerang","cc":"ID","country":"Indonesia","lat":-6.1781,"lon":106.63,"population":1372124},{"name":"Santa Cruz de la Sierra","cc":"BO","country":"Bolivia","lat":-17.7863,"lon":-63.1812,"population":1364389},{"name":"Handan","cc":"CN","country":"China","lat":36.6006,"lon":114.4678,"population":1358318},{"name":"Kampala","cc":"UG","country":"Uganda","lat":0.3163,"lon":32.5822,"population":1353189},{"name":"Yekaterinburg","cc":"RU","country":"Russia","lat":56.8519,"lon":60.6122,"population":1349772},{"name":"Suzhou","cc":"CN","country":"China","lat":31.3041,"lon":120.5954,"population":1343091},{"name":"Khulna","cc":"BD","country":"Bangladesh","lat":22.8098,"lon":89.5644,"population":1342339},{"name":"Douala","cc":"CM","country":"Cameroon","lat":4.0483,"lon":9.7043,"population":1338082},{"name":"Shantou","cc":"CN","country":"China","lat":23.3681,"lon":116.7148,"population":1333973},{"name":"San Antonio","cc":"US","country":"United States","lat":29.4241,"lon":-98.4936,"population":1327407},{"name":"Gorakhpur","cc":"IN","country":"India","lat":29.447,"lon":75.6718,"population":1324570},{"name":"Mecca","cc":"SA","country":"Saudi Arabia","lat":21.4267,"lon":39.8261,"population":1323624},{"name":"Makassar","cc":"ID","country":"Indonesia","lat":-5.14,"lon":119.4221,"population":1321717},{"name":"San Diego","cc":"US","country":"United States","lat":32.7153,"lon":-117.1573,"population":1307402},{"name":"Kawasaki","cc":"JP","country":"Japan","lat":35.5206,"lon":139.7172,"population":1306785},{"name":"Milano","cc":"IT","country":"Italy","lat":45.4643,"lon":9.1895,"population":1306661},{"name":"South Tangerang","cc":"ID","country":"Indonesia","lat":-6.2886,"lon":106.7179,"population":1303569},{"name":"Baotou","cc":"CN","country":"China","lat":40.6522,"lon":109.8222,"population":1301768},{"name":"Medina","cc":"SA","country":"Saudi Arabia","lat":24.4686,"lon":39.6142,"population":1300000},{"name":"Yaoundé","cc":"CM","country":"Cameroon","lat":3.8667,"lon":11.5167,"population":1299369},{"name":"Bamako","cc":"ML","country":"Mali","lat":12.65,"lon":-8,"population":1297281},{"name":"Nāsik","cc":"IN","country":"India","lat":19.9833,"lon":73.8,"population":1289497},{"name":"Semarang","cc":"ID","country":"Indonesia","lat":-6.9932,"lon":110.4203,"population":1288084},{"name":"Brazzaville","cc":"CG","country":"Congo - Brazzaville","lat":-4.2661,"lon":15.2832,"population":1284609},{"name":"Pimpri","cc":"IN","country":"India","lat":18.6229,"lon":73.807,"population":1284606},{"name":"Nizhniy Novgorod","cc":"RU","country":"Russia","lat":56.3287,"lon":44.002,"population":1284164},{"name":"Amman","cc":"JO","country":"Jordan","lat":31.9552,"lon":35.945,"population":1275857},{"name":"Budta","cc":"PH","country":"Philippines","lat":7.2042,"lon":124.4397,"population":1273715},{"name":"Belgrade","cc":"RS","country":"Serbia","lat":44.804,"lon":20.4651,"population":1273651},{"name":"Montevideo","cc":"UY","country":"Uruguay","lat":-34.9033,"lon":-56.1882,"population":1270737},{"name":"Lusaka","cc":"ZM","country":"Zambia","lat":-15.4067,"lon":28.2871,"population":1267440},{"name":"Kalyān","cc":"IN","country":"India","lat":19.2437,"lon":73.1355,"population":1262255},{"name":"Thāne","cc":"IN","country":"India","lat":19.197,"lon":72.9636,"population":1261517},{"name":"München","cc":"DE","country":"Germany","lat":48.1374,"lon":11.5755,"population":1260391},{"name":"Stockholm","cc":"SE","country":"Sweden","lat":59.3326,"lon":18.0649,"population":1253309},{"name":"Ra’s Bayrūt","cc":"LB","country":"Lebanon","lat":33.9,"lon":35.4833,"population":1251739},{"name":"Shīrāz","cc":"IR","country":"Iran","lat":29.6103,"lon":52.5311,"population":1249942},{"name":"Adana","cc":"TR","country":"Türkiye","lat":37.0017,"lon":35.3289,"population":1248988},{"name":"Suigen","cc":"KR","country":"South Korea","lat":37.2911,"lon":127.0089,"population":1242724},{"name":"Port-au-Prince","cc":"HT","country":"Haiti","lat":18.5392,"lon":-72.335,"population":1234742},{"name":"Ciudad Nezahualcóyotl","cc":"MX","country":"Mexico","lat":19.4006,"lon":-99.0148,"population":1232220},{"name":"Adelaide","cc":"AU","country":"Australia","lat":-34.9287,"lon":138.5986,"population":1225235},{"name":"Meerut","cc":"IN","country":"India","lat":28.9716,"lon":77.7193,"population":1223184},{"name":"Farīdābād","cc":"IN","country":"India","lat":28.4125,"lon":77.3198,"population":1220229},{"name":"Peshāwar","cc":"PK","country":"Pakistan","lat":34.008,"lon":71.5785,"population":1218773},{"name":"Davao","cc":"PH","country":"Philippines","lat":7.0731,"lon":125.6128,"population":1212504},{"name":"Mandalay","cc":"MM","country":"Myanmar (Burma)","lat":21.9747,"lon":96.0836,"population":1208099},{"name":"Santiago de los Caballeros","cc":"DO","country":"Dominican Republic","lat":19.4517,"lon":-70.697,"population":1200000},{"name":"Omdurman","cc":"SD","country":"Sudan","lat":15.6445,"lon":32.4777,"population":1200000},{"name":"Anshan","cc":"CN","country":"China","lat":41.1236,"lon":122.99,"population":1199275},{"name":"Tongshan","cc":"CN","country":"China","lat":34.1805,"lon":117.1571,"population":1199193},{"name":"Ghāziābād","cc":"IN","country":"India","lat":28.6625,"lon":77.4378,"population":1199191},{"name":"Depok","cc":"ID","country":"Indonesia","lat":-6.4,"lon":106.8186,"population":1198129},{"name":"Dallas","cc":"US","country":"United States","lat":32.7831,"lon":-96.8067,"population":1197816},{"name":"Saitama","cc":"JP","country":"Japan","lat":35.9081,"lon":139.6566,"population":1193350},{"name":"Gustavo A. Madero","cc":"MX","country":"Mexico","lat":19.4902,"lon":-99.1098,"population":1193161},{"name":"Dombivli","cc":"IN","country":"India","lat":19.2167,"lon":73.0833,"population":1193000},{"name":"Maputo","cc":"MZ","country":"Mozambique","lat":-25.9655,"lon":32.5832,"population":1191613},{"name":"Gustavo A. Madero","cc":"MX","country":"Mexico","lat":22.8697,"lon":-98.7589,"population":1185772},{"name":"Fuzhou","cc":"CN","country":"China","lat":26.0614,"lon":119.3061,"population":1179720},{"name":"Rājkot","cc":"IN","country":"India","lat":22.2916,"lon":70.7932,"population":1177362},{"name":"Rosario","cc":"AR","country":"Argentina","lat":-32.9468,"lon":-60.6393,"population":1173533},{"name":"Guiyang","cc":"CN","country":"China","lat":26.5833,"lon":106.7167,"population":1171633},{"name":"Goiânia","cc":"BR","country":"Brazil","lat":-16.6786,"lon":-49.2539,"population":1171195},{"name":"Guarulhos","cc":"BR","country":"Brazil","lat":-23.4628,"lon":-46.5333,"population":1169577},{"name":"Prague","cc":"CZ","country":"Czechia","lat":50.088,"lon":14.4208,"population":1165581},{"name":"Vārānasi","cc":"IN","country":"India","lat":25.3167,"lon":83.0104,"population":1164404},{"name":"Copenhagen","cc":"DK","country":"Denmark","lat":55.6759,"lon":12.5655,"population":1153615},{"name":"Sofia","cc":"BG","country":"Bulgaria","lat":42.6975,"lon":23.3242,"population":1152556},{"name":"Tripoli","cc":"LY","country":"Libya","lat":32.8752,"lon":13.1875,"population":1150989},{"name":"Port Harcourt","cc":"NG","country":"Nigeria","lat":4.7774,"lon":7.0134,"population":1148665},{"name":"Hiroshima-shi","cc":"JP","country":"Japan","lat":34.3963,"lon":132.4594,"population":1143841},{"name":"Dayan","cc":"CN","country":"China","lat":26.8688,"lon":100.2207,"population":1137600},{"name":"Dubai","cc":"AE","country":"United Arab Emirates","lat":25.2582,"lon":55.3047,"population":1137347},{"name":"Samara","cc":"RU","country":"Russia","lat":53.2001,"lon":50.15,"population":1134730},{"name":"Omsk","cc":"RU","country":"Russia","lat":54.9924,"lon":73.3686,"population":1129281},{"name":"Benin City","cc":"NG","country":"Nigeria","lat":6.335,"lon":5.6275,"population":1125058},{"name":"Monterrey","cc":"MX","country":"Mexico","lat":25.6751,"lon":-100.3185,"population":1122874},{"name":"Malingao","cc":"PH","country":"Philippines","lat":7.1608,"lon":124.475,"population":1121974},{"name":"Baku","cc":"AZ","country":"Azerbaijan","lat":40.3777,"lon":49.892,"population":1116513},{"name":"León","cc":"MX","country":"Mexico","lat":21.1213,"lon":-101.668,"population":1114626},{"name":"Maiduguri","cc":"NG","country":"Nigeria","lat":11.8464,"lon":13.1603,"population":1112449},{"name":"Wuxi","cc":"CN","country":"China","lat":31.5689,"lon":120.2886,"population":1108647},{"name":"Kazan","cc":"RU","country":"Russia","lat":55.7887,"lon":49.1221,"population":1104738},{"name":"Yerevan","cc":"AM","country":"Armenia","lat":40.1811,"lon":44.5136,"population":1093485},{"name":"Amritsar","cc":"IN","country":"India","lat":31.6366,"lon":74.8748,"population":1092450},{"name":"Ouagadougou","cc":"BF","country":"Burkina Faso","lat":12.3657,"lon":-1.5339,"population":1086505},{"name":"Yono","cc":"JP","country":"Japan","lat":35.8833,"lon":139.6333,"population":1077730},{"name":"Rostov-na-Donu","cc":"RU","country":"Russia","lat":47.2314,"lon":39.7233,"population":1074482},{"name":"Allahābād","cc":"IN","country":"India","lat":25.4489,"lon":81.8333,"population":1073438},{"name":"Goyang","cc":"KR","country":"South Korea","lat":37.6564,"lon":126.835,"population":1073069},{"name":"Gaziantep","cc":"TR","country":"Türkiye","lat":37.0594,"lon":37.3825,"population":1065975},{"name":"Vishākhapatnam","cc":"IN","country":"India","lat":17.69,"lon":83.2093,"population":1063178},{"name":"Sendai","cc":"JP","country":"Japan","lat":38.2576,"lon":140.8667,"population":1063103},{"name":"Chelyabinsk","cc":"RU","country":"Russia","lat":55.154,"lon":61.4292,"population":1062919},{"name":"Datong","cc":"CN","country":"China","lat":40.0936,"lon":113.2914,"population":1052678},{"name":"Tbilisi","cc":"GE","country":"Georgia","lat":41.6941,"lon":44.8337,"population":1049498},{"name":"Changshu City","cc":"CN","country":"China","lat":31.6462,"lon":120.7422,"population":1047700},{"name":"Taichung","cc":"TW","country":"Taiwan","lat":24.1469,"lon":120.6839,"population":1040725},{"name":"Sendai-shi","cc":"JP","country":"Japan","lat":38.2689,"lon":140.8719,"population":1037562},{"name":"Teni","cc":"IN","country":"India","lat":10.0153,"lon":77.482,"population":1034724},{"name":"Xianyang","cc":"CN","country":"China","lat":34.3378,"lon":108.7026,"population":1034081},{"name":"Ufa","cc":"RU","country":"Russia","lat":54.7852,"lon":56.0456,"population":1033338},{"name":"Dnipropetrovsk","cc":"UA","country":"Ukraine","lat":48.45,"lon":34.9833,"population":1032822},{"name":"Seongnam","cc":"KR","country":"South Korea","lat":37.4386,"lon":127.1378,"population":1031935},{"name":"Campinas","cc":"BR","country":"Brazil","lat":-22.9056,"lon":-47.0608,"population":1031554},{"name":"Jabalpur","cc":"IN","country":"India","lat":23.167,"lon":79.9501,"population":1030168},{"name":"Hāora","cc":"IN","country":"India","lat":22.5769,"lon":88.3186,"population":1027672},{"name":"Huainan","cc":"CN","country":"China","lat":32.6264,"lon":116.9969,"population":1027655},{"name":"Donets’k","cc":"UA","country":"Ukraine","lat":48.023,"lon":37.8022,"population":1024700},{"name":"Dublin","cc":"IE","country":"Ireland","lat":53.3331,"lon":-6.2489,"population":1024027},{"name":"Kunming","cc":"CN","country":"China","lat":25.0389,"lon":102.7183,"population":1023674},{"name":"Calgary","cc":"CA","country":"Canada","lat":51.0501,"lon":-114.0853,"population":1019942},{"name":"Brussels","cc":"BE","country":"Belgium","lat":50.8505,"lon":4.3488,"population":1019022},{"name":"Aurangābād","cc":"IN","country":"India","lat":19.8833,"lon":75.3333,"population":1016441},{"name":"Volgograd","cc":"RU","country":"Russia","lat":48.7194,"lon":44.5018,"population":1011417},{"name":"Nova Iguaçu","cc":"BR","country":"Brazil","lat":-22.7592,"lon":-43.4511,"population":1002118},{"name":"Jieyang","cc":"CN","country":"China","lat":23.5289,"lon":116.3642,"population":1001985},{"name":"Odessa","cc":"UA","country":"Ukraine","lat":46.4775,"lon":30.7326,"population":1001558},{"name":"Zhu Cheng City","cc":"CN","country":"China","lat":35.995,"lon":119.4026,"population":1000000},{"name":"Masjid Jamie Baitul Muttaqien","cc":"ID","country":"Indonesia","lat":-6.3684,"lon":107.9558,"population":1000000},{"name":"Shivaji Nagar","cc":"IN","country":"India","lat":18.5302,"lon":73.8526,"population":1000000},{"name":"Kitakyūshū","cc":"JP","country":"Japan","lat":33.8333,"lon":130.8333,"population":997536},{"name":"Solāpur","cc":"IN","country":"India","lat":17.6715,"lon":75.9104,"population":997281},{"name":"Baoding","cc":"CN","country":"China","lat":38.8511,"lon":115.4903,"population":995652},{"name":"Guatemala City","cc":"GT","country":"Guatemala","lat":14.6407,"lon":-90.5133,"population":994938},{"name":"Benxi","cc":"CN","country":"China","lat":41.2886,"lon":123.765,"population":987717},{"name":"Zapopan","cc":"MX","country":"Mexico","lat":20.7236,"lon":-103.3848,"population":987516},{"name":"Birmingham","cc":"GB","country":"United Kingdom","lat":52.4814,"lon":-1.8998,"population":984333},{"name":"Perm’","cc":"RU","country":"Russia","lat":58.0174,"lon":56.2855,"population":982419},{"name":"Srinagar","cc":"IN","country":"India","lat":34.0884,"lon":74.803,"population":975857},{"name":"Zaria","cc":"NG","country":"Nigeria","lat":11.1113,"lon":7.7227,"population":975153},{"name":"Managua","cc":"NI","country":"Nicaragua","lat":12.1328,"lon":-86.2504,"population":973087},{"name":"Port Elizabeth","cc":"ZA","country":"South Africa","lat":-33.918,"lon":25.5701,"population":967677},{"name":"Fès","cc":"MA","country":"Morocco","lat":34.0371,"lon":-4.9998,"population":964891},{"name":"Köln","cc":"DE","country":"Germany","lat":50.9333,"lon":6.95,"population":963395},{"name":"Ulsan","cc":"KR","country":"South Korea","lat":35.5372,"lon":129.3167,"population":962865},{"name":"Chandigarh","cc":"IN","country":"India","lat":30.7363,"lon":76.7884,"population":960787},{"name":"Coimbatore","cc":"IN","country":"India","lat":11.0056,"lon":76.9661,"population":959823},{"name":"Napoli","cc":"IT","country":"Italy","lat":40.8333,"lon":14.25,"population":959574},{"name":"Maceió","cc":"BR","country":"Brazil","lat":-9.6658,"lon":-35.7353,"population":954991},{"name":"Cartagena","cc":"CO","country":"Colombia","lat":10.3997,"lon":-75.5144,"population":952024},{"name":"Changzhou","cc":"CN","country":"China","lat":31.7736,"lon":119.954,"population":949018},{"name":"Sulţānah","cc":"SA","country":"Saudi Arabia","lat":24.4926,"lon":39.5857,"population":946697},{"name":"San Jose","cc":"US","country":"United States","lat":37.3394,"lon":-121.895,"population":945942},{"name":"Monrovia","cc":"LR","country":"Liberia","lat":6.3005,"lon":-10.7969,"population":939524},{"name":"Kingston","cc":"JM","country":"Jamaica","lat":17.997,"lon":-76.7936,"population":937700},{"name":"Erbil","cc":"IQ","country":"Iraq","lat":36.1926,"lon":44.0106,"population":932800},{"name":"Krasnoyarsk","cc":"RU","country":"Russia","lat":56.0184,"lon":92.8672,"population":927200},{"name":"Nay Pyi Taw","cc":"MM","country":"Myanmar (Burma)","lat":19.745,"lon":96.1297,"population":925000},{"name":"Jodhpur","cc":"IN","country":"India","lat":26.2684,"lon":73.0059,"population":921476},{"name":"Chiba","cc":"JP","country":"Japan","lat":35.6047,"lon":140.1233,"population":919729},{"name":"São Luís","cc":"BR","country":"Brazil","lat":-2.5297,"lon":-44.3028,"population":917237},{"name":"Madurai","cc":"IN","country":"India","lat":9.9174,"lon":78.1196,"population":909908},{"name":"Sale","cc":"MA","country":"Morocco","lat":34.0531,"lon":-6.7985,"population":903485},{"name":"Huaibei","cc":"CN","country":"China","lat":33.9744,"lon":116.7917,"population":903039},{"name":"Cochabamba","cc":"BO","country":"Bolivia","lat":-17.3895,"lon":-66.1568,"population":900414},{"name":"Abobo","cc":"CI","country":"Côte d’Ivoire","lat":5.4161,"lon":-4.0159,"population":900000},{"name":"Abū Ghurayb","cc":"IQ","country":"Iraq","lat":33.307,"lon":44.1869,"population":900000},{"name":"Qom","cc":"IR","country":"Iran","lat":34.6401,"lon":50.8764,"population":900000},{"name":"Bishkek","cc":"KG","country":"Kyrgyzstan","lat":42.87,"lon":74.59,"population":900000},{"name":"Guwāhāti","cc":"IN","country":"India","lat":26.1862,"lon":91.751,"population":899094},{"name":"Aba","cc":"NG","country":"Nigeria","lat":5.1066,"lon":7.3667,"population":897560},{"name":"Pingdingshan","cc":"CN","country":"China","lat":33.7385,"lon":113.3012,"population":889675},{"name":"Gwalior","cc":"IN","country":"India","lat":26.2298,"lon":78.1734,"population":882458},{"name":"Qiqihar","cc":"CN","country":"China","lat":47.3409,"lon":123.9605,"population":882364},{"name":"Klang","cc":"MY","country":"Malaysia","lat":3.0333,"lon":101.45,"population":879867},{"name":"Mendoza","cc":"AR","country":"Argentina","lat":-32.8908,"lon":-68.8272,"population":876884},{"name":"Konya","cc":"TR","country":"Türkiye","lat":37.8714,"lon":32.4846,"population":875530},{"name":"Mbuji-Mayi","cc":"CD","country":"Congo - Kinshasa","lat":-6.136,"lon":23.5898,"population":874761},{"name":"Vijayawāda","cc":"IN","country":"India","lat":16.5193,"lon":80.6305,"population":874587},{"name":"Pikine","cc":"SN","country":"Senegal","lat":14.7646,"lon":-17.3907,"population":874062},{"name":"Mysore","cc":"IN","country":"India","lat":12.2979,"lon":76.6393,"population":868313},{"name":"Wenzhou","cc":"CN","country":"China","lat":27.9994,"lon":120.6668,"population":865672},{"name":"Turin","cc":"IT","country":"Italy","lat":45.0705,"lon":7.6868,"population":865263},{"name":"Saratov","cc":"RU","country":"Russia","lat":51.5406,"lon":46.0086,"population":863725},{"name":"Tegucigalpa","cc":"HN","country":"Honduras","lat":14.0818,"lon":-87.2068,"population":850848},{"name":"Bucheon","cc":"KR","country":"South Korea","lat":37.4989,"lon":126.7831,"population":850731},{"name":"Voronezh","cc":"RU","country":"Russia","lat":51.672,"lon":39.1843,"population":848752},{"name":"Ranchi","cc":"IN","country":"India","lat":23.3478,"lon":85.3386,"population":846454},{"name":"Naucalpan de Juárez","cc":"MX","country":"Mexico","lat":19.4785,"lon":-99.2396,"population":846185},{"name":"Ulaanbaatar","cc":"MN","country":"Mongolia","lat":47.9077,"lon":106.8832,"population":844818},{"name":"Takeo","cc":"KH","country":"Cambodia","lat":10.9908,"lon":104.785,"population":843931},{"name":"Ahvaz","cc":"IR","country":"Iran","lat":31.319,"lon":48.6842,"population":841145},{"name":"Arequipa","cc":"PE","country":"Peru","lat":-16.3989,"lon":-71.535,"population":841130},{"name":"Padang","cc":"ID","country":"Indonesia","lat":-0.9492,"lon":100.3543,"population":840352},{"name":"Hubli","cc":"IN","country":"India","lat":15.3478,"lon":75.1338,"population":840214},{"name":"Marrakesh","cc":"MA","country":"Morocco","lat":31.6342,"lon":-7.9999,"population":839296},{"name":"Kampung Baru Subang","cc":"MY","country":"Malaysia","lat":3.15,"lon":101.5333,"population":833571},{"name":"Indianapolis","cc":"US","country":"United States","lat":39.7684,"lon":-86.158,"population":829718},{"name":"Jacksonville","cc":"US","country":"United States","lat":30.3322,"lon":-81.6556,"population":821784},{"name":"Duque de Caxias","cc":"BR","country":"Brazil","lat":-22.7856,"lon":-43.3117,"population":818329},{"name":"Jos","cc":"NG","country":"Nigeria","lat":9.9167,"lon":8.9,"population":816824},{"name":"Valencia","cc":"ES","country":"Spain","lat":39.4698,"lon":-0.3774,"population":814208},{"name":"Ilorin","cc":"NG","country":"Nigeria","lat":8.5,"lon":4.55,"population":814192},{"name":"Callao","cc":"PE","country":"Peru","lat":-12.0566,"lon":-77.1181,"population":813264},{"name":"La Paz","cc":"BO","country":"Bolivia","lat":-16.5,"lon":-68.15,"population":812799},{"name":"Ottawa","cc":"CA","country":"Canada","lat":45.4112,"lon":-75.6981,"population":812129},{"name":"Barquisimeto","cc":"VE","country":"Venezuela","lat":10.0739,"lon":-69.3228,"population":809490},{"name":"Chihuahua","cc":"MX","country":"Mexico","lat":28.6353,"lon":-106.0889,"population":809232},{"name":"San Francisco","cc":"US","country":"United States","lat":37.7749,"lon":-122.4194,"population":805235},{"name":"Nanning","cc":"CN","country":"China","lat":22.8167,"lon":108.3167,"population":803788},{"name":"Freetown","cc":"SL","country":"Sierra Leone","lat":8.484,"lon":-13.2299,"population":802639},{"name":"Johor Bahru","cc":"MY","country":"Malaysia","lat":1.4655,"lon":103.7578,"population":802489},{"name":"Jerusalem","cc":"IL","country":"Israel","lat":31.769,"lon":35.2163,"population":801000},{"name":"Bandarlampung","cc":"ID","country":"Indonesia","lat":-5.4254,"lon":105.258,"population":800348},{"name":"Zagreb - Centar","cc":"HR","country":"Croatia","lat":45.8131,"lon":15.9775,"population":800000},{"name":"Bogor","cc":"ID","country":"Indonesia","lat":-6.5944,"lon":106.7892,"population":800000},{"name":"Mombasa","cc":"KE","country":"Kenya","lat":-4.0547,"lon":39.6636,"population":799668},{"name":"Cebu City","cc":"PH","country":"Philippines","lat":10.3167,"lon":123.8907,"population":798634},{"name":"Muscat","cc":"OM","country":"Oman","lat":23.6139,"lon":58.5922,"population":797000},{"name":"Zaporizhzhya","cc":"UA","country":"Ukraine","lat":47.8229,"lon":35.1903,"population":796217},{"name":"Marseille","cc":"FR","country":"France","lat":43.297,"lon":5.3811,"population":794811},{"name":"Zarqa","cc":"JO","country":"Jordan","lat":32.0728,"lon":36.088,"population":792665},{"name":"Çankaya","cc":"TR","country":"Türkiye","lat":39.9179,"lon":32.8627,"population":792189},{"name":"Austin","cc":"US","country":"United States","lat":30.2672,"lon":-97.7431,"population":790390},{"name":"Columbus","cc":"US","country":"United States","lat":39.9612,"lon":-82.9988,"population":787033},{"name":"Boumerdas","cc":"DZ","country":"Algeria","lat":36.7664,"lon":3.4772,"population":786499},{"name":"Jalandhar","cc":"IN","country":"India","lat":31.3256,"lon":75.5792,"population":785178},{"name":"Thiruvananthapuram","cc":"IN","country":"India","lat":8.4855,"lon":76.9492,"population":784153},{"name":"Sakai","cc":"JP","country":"Japan","lat":34.5833,"lon":135.4667,"population":782339},{"name":"Anyang","cc":"CN","country":"China","lat":36.0994,"lon":114.3289,"population":781129},{"name":"San Miguel de Tucumán","cc":"AR","country":"Argentina","lat":-26.8241,"lon":-65.2226,"population":781023},{"name":"Salem","cc":"IN","country":"India","lat":11.6512,"lon":78.1587,"population":778396},{"name":"Tiruchirappalli","cc":"IN","country":"India","lat":10.8155,"lon":78.6965,"population":775484},{"name":"Homs","cc":"SY","country":"Syria","lat":34.7268,"lon":36.7234,"population":775404},{"name":"Hohhot","cc":"CN","country":"China","lat":40.8106,"lon":111.6522,"population":774477},{"name":"Niamey","cc":"NE","country":"Niger","lat":13.5137,"lon":2.1098,"population":774235},{"name":"Tainan","cc":"TW","country":"Taiwan","lat":22.9908,"lon":120.2133,"population":771235},{"name":"Shangyu","cc":"CN","country":"China","lat":30.0156,"lon":120.8711,"population":770000},{"name":"Łódź","cc":"PL","country":"Poland","lat":51.75,"lon":19.4667,"population":768755},{"name":"Dammam","cc":"SA","country":"Saudi Arabia","lat":26.4344,"lon":50.1033,"population":768602},{"name":"Xining","cc":"CN","country":"China","lat":36.6255,"lon":101.7574,"population":767531},{"name":"Kahrīz","cc":"IR","country":"Iran","lat":34.3838,"lon":47.0553,"population":766706},{"name":"Kota","cc":"IN","country":"India","lat":25.1825,"lon":75.8391,"population":763088},{"name":"Natal","cc":"BR","country":"Brazil","lat":-5.795,"lon":-35.2094,"population":763043},{"name":"Bhubaneshwar","cc":"IN","country":"India","lat":20.2724,"lon":85.8339,"population":762243},{"name":"Qinhuangdao","cc":"CN","country":"China","lat":39.9317,"lon":119.5883,"population":759718},{"name":"Hengyang","cc":"CN","country":"China","lat":26.8881,"lon":112.615,"population":759602},{"name":"Antalya","cc":"TR","country":"Türkiye","lat":36.9081,"lon":30.6956,"population":758188},{"name":"Kraków","cc":"PL","country":"Poland","lat":50.0614,"lon":19.9366,"population":755050},{"name":"Alīgarh","cc":"IN","country":"India","lat":27.8833,"lon":78.0748,"population":753207},{"name":"Da Nang","cc":"VN","country":"Vietnam","lat":16.0678,"lon":108.2208,"population":752493},{"name":"Pietermaritzburg","cc":"ZA","country":"South Africa","lat":-29.6168,"lon":30.3928,"population":750845},{"name":"Lomé","cc":"TG","country":"Togo","lat":6.1375,"lon":1.2123,"population":749700},{"name":"Trujillo","cc":"PE","country":"Peru","lat":-8.116,"lon":-79.03,"population":747450},{"name":"Malang","cc":"ID","country":"Indonesia","lat":-7.9797,"lon":112.6304,"population":746716},{"name":"Ciudad Guayana","cc":"VE","country":"Venezuela","lat":8.3512,"lon":-62.641,"population":746535},{"name":"Bareilly","cc":"IN","country":"India","lat":28.347,"lon":79.4219,"population":745435},{"name":"Kigali","cc":"RW","country":"Rwanda","lat":-1.9499,"lon":30.0589,"population":745261},{"name":"Teresina","cc":"BR","country":"Brazil","lat":-5.0892,"lon":-42.8019,"population":744512},{"name":"Xinxiang","cc":"CN","country":"China","lat":35.3089,"lon":113.8672,"population":743601},{"name":"São Bernardo do Campo","cc":"BR","country":"Brazil","lat":-23.6939,"lon":-46.565,"population":743372},{"name":"Hegang","cc":"CN","country":"China","lat":47.3512,"lon":130.3001,"population":743307},{"name":"Riga","cc":"LV","country":"Latvia","lat":56.946,"lon":24.1059,"population":742572},{"name":"Amsterdam","cc":"NL","country":"Netherlands","lat":52.374,"lon":4.8897,"population":741636},{"name":"Fort Worth","cc":"US","country":"United States","lat":32.7254,"lon":-97.3208,"population":741206},{"name":"Oyo","cc":"NG","country":"Nigeria","lat":7.85,"lon":3.9333,"population":736072},{"name":"Quetta","cc":"PK","country":"Pakistan","lat":30.199,"lon":67.0097,"population":733675},{"name":"Charlotte","cc":"US","country":"United States","lat":35.2271,"lon":-80.8431,"population":731424},{"name":"Campo Grande","cc":"BR","country":"Brazil","lat":-20.4428,"lon":-54.6464,"population":729151},{"name":"Athens","cc":"GR","country":"Greece","lat":37.9795,"lon":23.7162,"population":729137},{"name":"Ashgabat","cc":"TM","country":"Turkmenistan","lat":37.95,"lon":58.3833,"population":727700},{"name":"Muzaffarābād","cc":"PK","country":"Pakistan","lat":34.37,"lon":73.4708,"population":725000},{"name":"Guadalupe","cc":"MX","country":"Mexico","lat":25.6768,"lon":-100.2565,"population":724921},{"name":"Bağcılar","cc":"TR","country":"Türkiye","lat":41.039,"lon":28.8567,"population":724270},{"name":"As Sulaymānīyah","cc":"IQ","country":"Iraq","lat":35.565,"lon":45.4329,"population":723170},{"name":"Cúcuta","cc":"CO","country":"Colombia","lat":7.8939,"lon":-72.5078,"population":721398},{"name":"Morādābād","cc":"IN","country":"India","lat":28.8389,"lon":78.7768,"population":721139},{"name":"N'Djamena","cc":"TD","country":"Chad","lat":12.1067,"lon":15.0444,"population":721081},{"name":"Langfang","cc":"CN","country":"China","lat":39.5097,"lon":116.6947,"population":720119},{"name":"Ningbo","cc":"CN","country":"China","lat":29.8782,"lon":121.5495,"population":719867},{"name":"Yantai","cc":"CN","country":"China","lat":37.4765,"lon":121.4408,"population":719332},{"name":"L'viv","cc":"UA","country":"Ukraine","lat":49.8383,"lon":24.0232,"population":717803},{"name":"Mérida","cc":"MX","country":"Mexico","lat":20.9767,"lon":-89.6206,"population":717175},{"name":"Tlalnepantla","cc":"MX","country":"Mexico","lat":19.5401,"lon":-99.1954,"population":715767},{"name":"Nerima-ku","cc":"JP","country":"Japan","lat":35.7333,"lon":139.65,"population":713995},{"name":"Detroit","cc":"US","country":"United States","lat":42.3314,"lon":-83.0457,"population":713777},{"name":"Edmonton","cc":"CA","country":"Canada","lat":53.5501,"lon":-113.4687,"population":712391},{"name":"Jeonju","cc":"KR","country":"South Korea","lat":35.8219,"lon":127.1489,"population":711424},{"name":"Zhuzhou","cc":"CN","country":"China","lat":27.8333,"lon":113.15,"population":709358},{"name":"Subang Jaya","cc":"MY","country":"Malaysia","lat":3.0438,"lon":101.5806,"population":708296},{"name":"Bhiwandi","cc":"IN","country":"India","lat":19.3002,"lon":73.0588,"population":707035},{"name":"Alvaro Obregón","cc":"MX","country":"Mexico","lat":19.3587,"lon":-99.2033,"population":706567},{"name":"Pekanbaru","cc":"ID","country":"Indonesia","lat":0.5333,"lon":101.45,"population":703956},{"name":"Sevilla","cc":"ES","country":"Spain","lat":37.3824,"lon":-5.9761,"population":703206},{"name":"Tol’yatti","cc":"RU","country":"Russia","lat":53.5303,"lon":49.3461,"population":702879},{"name":"Jaboatão","cc":"BR","country":"Brazil","lat":-8.1803,"lon":-35.0014,"population":702621},{"name":"Shizuoka-shi","cc":"JP","country":"Japan","lat":34.9769,"lon":138.3831,"population":701561},{"name":"Santo Domingo Oeste","cc":"DO","country":"Dominican Republic","lat":18.5,"lon":-70,"population":701269},{"name":"Rājshāhi","cc":"BD","country":"Bangladesh","lat":24.374,"lon":88.6011,"population":700133},{"name":"City of Balikpapan","cc":"ID","country":"Indonesia","lat":-1.242,"lon":116.8942,"population":700000},{"name":"Changzhi","cc":"CN","country":"China","lat":35.2089,"lon":111.7386,"population":699514},{"name":"Bulawayo","cc":"ZW","country":"Zimbabwe","lat":-20.15,"lon":28.5833,"population":699385},{"name":"Zagreb","cc":"HR","country":"Croatia","lat":45.8144,"lon":15.978,"population":698966},{"name":"Agadir","cc":"MA","country":"Morocco","lat":30.4202,"lon":-9.5981,"population":698310},{"name":"Sarajevo","cc":"BA","country":"Bosnia & Herzegovina","lat":43.8486,"lon":18.3564,"population":696731},{"name":"La Plata","cc":"AR","country":"Argentina","lat":-34.9214,"lon":-57.9545,"population":694167},{"name":"Tunis","cc":"TN","country":"Tunisia","lat":36.819,"lon":10.1658,"population":693210},{"name":"Zhangjiakou","cc":"CN","country":"China","lat":40.81,"lon":114.8794,"population":692602},{"name":"Cotonou","cc":"BJ","country":"Benin","lat":6.3654,"lon":2.4183,"population":690584},{"name":"Zigong","cc":"CN","country":"China","lat":29.3416,"lon":104.7769,"population":689961},{"name":"Fuxin","cc":"CN","country":"China","lat":42.0156,"lon":121.6589,"population":689050},{"name":"Enugu","cc":"NG","country":"Nigeria","lat":6.4402,"lon":7.4943,"population":688862},{"name":"Tangier","cc":"MA","country":"Morocco","lat":35.7673,"lon":-5.7998,"population":688356},{"name":"Huangshi","cc":"CN","country":"China","lat":30.2471,"lon":115.0481,"population":688090},{"name":"Liaoyang","cc":"CN","country":"China","lat":41.2719,"lon":123.1731,"population":687890},{"name":"Kumamoto-shi","cc":"JP","country":"Japan","lat":32.7897,"lon":130.7417,"population":680423},{"name":"Raipur","cc":"IN","country":"India","lat":21.2333,"lon":81.6333,"population":679995},{"name":"General Santos","cc":"PH","country":"Philippines","lat":6.1128,"lon":125.1717,"population":679588},{"name":"Dushanbe","cc":"TJ","country":"Tajikistan","lat":38.5358,"lon":68.7791,"population":679400},{"name":"Osasco","cc":"BR","country":"Brazil","lat":-23.5325,"lon":-46.7917,"population":677856},{"name":"San Luis Potosí","cc":"MX","country":"Mexico","lat":22.1499,"lon":-100.9828,"population":677704},{"name":"Ōta-ku","cc":"JP","country":"Japan","lat":35.5613,"lon":139.7161,"population":676458},{"name":"Matola","cc":"MZ","country":"Mozambique","lat":-25.9622,"lon":32.4589,"population":675422},{"name":"Zaragoza","cc":"ES","country":"Spain","lat":41.6561,"lon":-0.8773,"population":674317},{"name":"Gorakhpur","cc":"IN","country":"India","lat":26.7548,"lon":83.3724,"population":674246},{"name":"Xiangtan","cc":"CN","country":"China","lat":27.85,"lon":112.9,"population":674189},{"name":"Ipoh","cc":"MY","country":"Malaysia","lat":4.5841,"lon":101.0829,"population":673318},{"name":"Palermo","cc":"IT","country":"Italy","lat":38.1158,"lon":13.3598,"population":672175},{"name":"Edogawa-ku","cc":"JP","country":"Japan","lat":35.7,"lon":139.8833,"population":671937},{"name":"Zibo","cc":"CN","country":"China","lat":36.7906,"lon":118.0633,"population":669770},{"name":"Mississauga","cc":"CA","country":"Canada","lat":43.5789,"lon":-79.6583,"population":668549},{"name":"Puyang","cc":"CN","country":"China","lat":35.7028,"lon":115.0053,"population":666322},{"name":"Nantong","cc":"CN","country":"China","lat":32.0303,"lon":120.8747,"population":666251},{"name":"Mudanjiang","cc":"CN","country":"China","lat":44.5833,"lon":129.6,"population":665915},{"name":"Santo André","cc":"BR","country":"Brazil","lat":-23.6639,"lon":-46.5383,"population":662373},{"name":"Nouakchott","cc":"MR","country":"Mauritania","lat":18.0858,"lon":-15.9785,"population":661400},{"name":"Pointe-Noire","cc":"CG","country":"Congo - Brazzaville","lat":-4.7761,"lon":11.8635,"population":659084},{"name":"Aguascalientes","cc":"MX","country":"Mexico","lat":21.8823,"lon":-102.2826,"population":658179},{"name":"Kryvyy Rih","cc":"UA","country":"Ukraine","lat":47.9097,"lon":33.3804,"population":652380},{"name":"Acapulco","cc":"MX","country":"Mexico","lat":16.8634,"lon":-99.8901,"population":652136},{"name":"João Pessoa","cc":"BR","country":"Brazil","lat":-7.115,"lon":-34.8631,"population":650883},{"name":"Ansan","cc":"KR","country":"South Korea","lat":37.3236,"lon":126.8219,"population":650728},{"name":"Benghazi","cc":"LY","country":"Libya","lat":32.1177,"lon":20.1293,"population":650629},{"name":"Frankfurt am Main","cc":"DE","country":"Germany","lat":50.1155,"lon":8.6842,"population":650000},{"name":"Krasnodar","cc":"RU","country":"Russia","lat":45.0448,"lon":38.976,"population":649851},{"name":"Guilin","cc":"CN","country":"China","lat":25.2819,"lon":110.2864,"population":649352},{"name":"El Paso","cc":"US","country":"United States","lat":31.7587,"lon":-106.4869,"population":649121},{"name":"Sagamihara","cc":"JP","country":"Japan","lat":35.5531,"lon":139.3544,"population":648801},{"name":"Colombo","cc":"LK","country":"Sri Lanka","lat":6.9319,"lon":79.8478,"population":648034},{"name":"Memphis","cc":"US","country":"United States","lat":35.1495,"lon":-90.049,"population":646889},{"name":"Lilongwe","cc":"MW","country":"Malawi","lat":-13.9669,"lon":33.7873,"population":646750},{"name":"Oran","cc":"DZ","country":"Algeria","lat":35.6911,"lon":-0.6417,"population":645984},{"name":"Adachi-ku","cc":"JP","country":"Japan","lat":35.7788,"lon":139.7951,"population":645365},{"name":"Diyarbakır","cc":"TR","country":"Türkiye","lat":37.9158,"lon":40.2189,"population":644763},{"name":"Taguig","cc":"PH","country":"Philippines","lat":14.5243,"lon":121.0792,"population":644473},{"name":"New South Memphis","cc":"US","country":"United States","lat":35.0868,"lon":-90.0568,"population":641608},{"name":"Ulyanovsk","cc":"RU","country":"Russia","lat":54.3282,"lon":48.3866,"population":640680},{"name":"Kotli","cc":"PK","country":"Pakistan","lat":33.5167,"lon":73.9167,"population":640000},{"name":"Okayama-shi","cc":"JP","country":"Japan","lat":34.6617,"lon":133.935,"population":639652},{"name":"Zhanjiang","cc":"CN","country":"China","lat":21.2815,"lon":110.3427,"population":637790},{"name":"Al Aḩmadī","cc":"KW","country":"Kuwait","lat":29.0769,"lon":48.0839,"population":637411},{"name":"Yogyakarta","cc":"ID","country":"Indonesia","lat":-7.7828,"lon":110.3608,"population":636660},{"name":"North York","cc":"CA","country":"Canada","lat":43.7668,"lon":-79.4163,"population":636000},{"name":"Chişinău","cc":"MD","country":"Moldova","lat":47.0056,"lon":28.8575,"population":635994},{"name":"Wrocław","cc":"PL","country":"Poland","lat":51.1,"lon":17.0333,"population":634893},{"name":"Cheongju","cc":"KR","country":"South Korea","lat":36.6372,"lon":127.4897,"population":634596},{"name":"Anyang","cc":"KR","country":"South Korea","lat":37.3925,"lon":126.9269,"population":634367},{"name":"Tébessa","cc":"DZ","country":"Algeria","lat":35.4042,"lon":8.1242,"population":634332},{"name":"Zhenjiang","cc":"CN","country":"China","lat":32.2109,"lon":119.4551,"population":632552},{"name":"Winnipeg","cc":"CA","country":"Canada","lat":49.8844,"lon":-97.147,"population":632063},{"name":"Dandong","cc":"CN","country":"China","lat":40.1292,"lon":124.3947,"population":631973},{"name":"Izhevsk","cc":"RU","country":"Russia","lat":56.8498,"lon":53.2045,"population":631038},{"name":"Jaboatão dos Guararapes","cc":"BR","country":"Brazil","lat":-8.1128,"lon":-35.0147,"population":630008},{"name":"Shaoguan","cc":"CN","country":"China","lat":24.8,"lon":113.5833,"population":628749},{"name":"Yancheng","cc":"CN","country":"China","lat":33.3856,"lon":120.1253,"population":628441},{"name":"Coyoacán","cc":"MX","country":"Mexico","lat":19.3467,"lon":-99.1617,"population":628063},{"name":"Foshan","cc":"CN","country":"China","lat":23.0268,"lon":113.1315,"population":627348},{"name":"Contagem","cc":"BR","country":"Brazil","lat":-19.9317,"lon":-44.0536,"population":627123},{"name":"Santiago de Querétaro","cc":"MX","country":"Mexico","lat":20.5881,"lon":-100.3881,"population":626495},{"name":"Bhilai","cc":"IN","country":"India","lat":21.2167,"lon":81.4333,"population":625138},{"name":"Panshan","cc":"CN","country":"China","lat":41.1881,"lon":122.0494,"population":625040},{"name":"Djibouti","cc":"DJ","country":"Djibouti","lat":11.589,"lon":43.145,"population":623891},{"name":"Saltillo","cc":"MX","country":"Mexico","lat":25.4194,"lon":-101.0013,"population":621250},{"name":"Kermānshāh","cc":"IR","country":"Iran","lat":34.3142,"lon":47.065,"population":621100},{"name":"Baltimore","cc":"US","country":"United States","lat":39.2904,"lon":-76.6122,"population":620961},{"name":"Ribeirão Preto","cc":"BR","country":"Brazil","lat":-21.1775,"lon":-47.8103,"population":619746},{"name":"Al Ḩudaydah","cc":"YE","country":"Yemen","lat":14.7978,"lon":42.9545,"population":617871},{"name":"Boston","cc":"US","country":"United States","lat":42.3584,"lon":-71.0598,"population":617594},{"name":"Pasig City","cc":"PH","country":"Philippines","lat":14.5869,"lon":121.0614,"population":617301},{"name":"Jamshedpur","cc":"IN","country":"India","lat":22.8028,"lon":86.1855,"population":616338},{"name":"Haikou","cc":"CN","country":"China","lat":20.0458,"lon":110.3417,"population":615835},{"name":"Ta‘izz","cc":"YE","country":"Yemen","lat":13.5795,"lon":44.0209,"population":615222},{"name":"São José dos Campos","cc":"BR","country":"Brazil","lat":-23.1794,"lon":-45.8869,"population":613764},{"name":"Taizhou","cc":"CN","country":"China","lat":32.4907,"lon":119.9081,"population":612356},{"name":"Xingtai","cc":"CN","country":"China","lat":37.0631,"lon":114.4942,"population":611739},{"name":"Glasgow","cc":"GB","country":"United Kingdom","lat":55.8652,"lon":-4.2576,"population":610268},{"name":"Borivli","cc":"IN","country":"India","lat":19.235,"lon":72.8598,"population":609617},{"name":"Seattle","cc":"US","country":"United States","lat":47.6062,"lon":-122.3321,"population":608660},{"name":"Tlalpan","cc":"MX","country":"Mexico","lat":19.2971,"lon":-99.1679,"population":607545},{"name":"Yaroslavl","cc":"RU","country":"Russia","lat":57.6299,"lon":39.8737,"population":606730},{"name":"Benoni","cc":"ZA","country":"South Africa","lat":-26.1885,"lon":28.3208,"population":605344},{"name":"Hamamatsu","cc":"JP","country":"Japan","lat":34.7,"lon":137.7333,"population":605098},{"name":"Cochin","cc":"IN","country":"India","lat":9.9399,"lon":76.2602,"population":604696},{"name":"Jinzhou","cc":"CN","country":"China","lat":41.1078,"lon":121.1417,"population":604269},{"name":"Amrāvati","cc":"IN","country":"India","lat":20.9333,"lon":77.75,"population":603837},{"name":"Abu Dhabi","cc":"AE","country":"United Arab Emirates","lat":24.4667,"lon":54.3667,"population":603492},{"name":"Haiphong","cc":"VN","country":"Vietnam","lat":20.8648,"lon":106.6835,"population":602695},{"name":"Genova","cc":"IT","country":"Italy","lat":44.4063,"lon":8.9339,"population":601951},{"name":"Washington, D. C.","cc":"US","country":"United States","lat":38.8951,"lon":-77.0364,"population":601723},{"name":"Islamabad","cc":"PK","country":"Pakistan","lat":33.7215,"lon":73.0433,"population":601600},{"name":"Kirkuk","cc":"IQ","country":"Iraq","lat":35.4681,"lon":44.3922,"population":601433},{"name":"Metropolitan Government of Nashville-Davidson (balance)","cc":"US","country":"United States","lat":36.1714,"lon":-86.7843,"population":601222},{"name":"Sāngli","cc":"IN","country":"India","lat":16.8544,"lon":74.5642,"population":601214},{"name":"Denver","cc":"US","country":"United States","lat":39.7392,"lon":-104.9847,"population":600158},{"name":"Shuangyashan","cc":"CN","country":"China","lat":46.6361,"lon":131.1539,"population":600000},{"name":"Situbondo","cc":"ID","country":"Indonesia","lat":-7.7062,"lon":114.0098,"population":600000},{"name":"Barnaul","cc":"RU","country":"Russia","lat":53.3606,"lon":83.7636,"population":599579},{"name":"Rotterdam","cc":"NL","country":"Netherlands","lat":51.9225,"lon":4.4792,"population":598199},{"name":"Luancheng","cc":"CN","country":"China","lat":37.8792,"lon":114.6517,"population":597130},{"name":"Mexicali","cc":"MX","country":"Mexico","lat":32.65,"lon":-115.4611,"population":597099},{"name":"Hermosillo","cc":"MX","country":"Mexico","lat":29.0971,"lon":-110.9575,"population":595811},{"name":"Milwaukee","cc":"US","country":"United States","lat":43.0389,"lon":-87.9065,"population":594833},{"name":"Rasht","cc":"IR","country":"Iran","lat":37.2808,"lon":49.5832,"population":594590},{"name":"Abeokuta","cc":"NG","country":"Nigeria","lat":7.15,"lon":3.35,"population":593100},{"name":"Essen","cc":"DE","country":"Germany","lat":51.4566,"lon":7.0123,"population":593085},{"name":"Kayseri","cc":"TR","country":"Türkiye","lat":38.7322,"lon":35.4853,"population":592840},{"name":"Morelia","cc":"MX","country":"Mexico","lat":19.7008,"lon":-101.1844,"population":592797},{"name":"Gold Coast","cc":"AU","country":"Australia","lat":-28.0003,"lon":153.4309,"population":591473},{"name":"Yingkou","cc":"CN","country":"China","lat":40.6648,"lon":122.2283,"population":591159},{"name":"Abuja","cc":"NG","country":"Nigeria","lat":9.0579,"lon":7.4951,"population":590400},{"name":"Zhangzhou","cc":"CN","country":"China","lat":24.5133,"lon":117.6556,"population":589831},{"name":"Stuttgart","cc":"DE","country":"Germany","lat":48.7823,"lon":9.177,"population":589793},{"name":"Dortmund","cc":"DE","country":"Germany","lat":51.5149,"lon":7.466,"population":588462},{"name":"Vladivostok","cc":"RU","country":"Russia","lat":43.1056,"lon":131.8735,"population":587022},{"name":"Irkutsk","cc":"RU","country":"Russia","lat":52.2978,"lon":104.2964,"population":586695},{"name":"Blantyre","cc":"MW","country":"Malawi","lat":-15.785,"lon":35.0085,"population":584877},{"name":"New Kingston","cc":"JM","country":"Jamaica","lat":18.0075,"lon":-76.7832,"population":583958},{"name":"Portland","cc":"US","country":"United States","lat":45.5234,"lon":-122.6762,"population":583776},{"name":"Las Vegas","cc":"US","country":"United States","lat":36.175,"lon":-115.1372,"population":583756},{"name":"Üsküdar","cc":"TR","country":"Türkiye","lat":41.0225,"lon":29.0237,"population":582666},{"name":"Culiacán","cc":"MX","country":"Mexico","lat":24.8074,"lon":-107.3973,"population":582469},{"name":"Cuttack","cc":"IN","country":"India","lat":20.465,"lon":85.8793,"population":580000},{"name":"Oslo","cc":"NO","country":"Norway","lat":59.9127,"lon":10.7461,"population":580000},{"name":"Oklahoma City","cc":"US","country":"United States","lat":35.4676,"lon":-97.5164,"population":579999},{"name":"Hachiōji","cc":"JP","country":"Japan","lat":35.6558,"lon":139.3239,"population":579399},{"name":"Khabarovsk","cc":"RU","country":"Russia","lat":48.4827,"lon":135.0838,"population":579000},{"name":"Xiamen","cc":"CN","country":"China","lat":24.4798,"lon":118.0819,"population":578337},{"name":"Khabarovsk Vtoroy","cc":"RU","country":"Russia","lat":48.4378,"lon":135.1333,"population":578303},{"name":"Libreville","cc":"GA","country":"Gabon","lat":0.3924,"lon":9.4536,"population":578156},{"name":"Kermān","cc":"IR","country":"Iran","lat":30.2832,"lon":57.0788,"population":577514},{"name":"Chiclayo","cc":"PE","country":"Peru","lat":-6.7714,"lon":-79.8409,"population":577375},{"name":"Orūmīyeh","cc":"IR","country":"Iran","lat":37.5527,"lon":45.0761,"population":577307},{"name":"Bahçelievler","cc":"TR","country":"Türkiye","lat":41.0023,"lon":28.8598,"population":576799},{"name":"Bengbu","cc":"CN","country":"China","lat":32.9408,"lon":117.3608,"population":576648},{"name":"Bīkāner","cc":"IN","country":"India","lat":28.0209,"lon":73.3075,"population":576015},{"name":"Umraniye","cc":"TR","country":"Türkiye","lat":41.0164,"lon":29.1248,"population":573265},{"name":"Düsseldorf","cc":"DE","country":"Germany","lat":51.2217,"lon":6.7762,"population":573057},{"name":"Banjarmasin","cc":"ID","country":"Indonesia","lat":-3.3199,"lon":114.5908,"population":572837},{"name":"Shihezi","cc":"CN","country":"China","lat":44.3023,"lon":86.0369,"population":572772},{"name":"Bucaramanga","cc":"CO","country":"Colombia","lat":7.1254,"lon":-73.1198,"population":571820},{"name":"South Boston","cc":"US","country":"United States","lat":42.3334,"lon":-71.0495,"population":571281},{"name":"Kuching","cc":"MY","country":"Malaysia","lat":1.55,"lon":110.3333,"population":570407},{"name":"Poznań","cc":"PL","country":"Poland","lat":52.4069,"lon":16.9299,"population":570352},{"name":"Veracruz","cc":"MX","country":"Mexico","lat":19.1807,"lon":-96.134,"population":568313},{"name":"Málaga","cc":"ES","country":"Spain","lat":36.7202,"lon":-4.4203,"population":568305},{"name":"Bouaké","cc":"CI","country":"Côte d’Ivoire","lat":7.6939,"lon":-5.0303,"population":567481},{"name":"Asmara","cc":"ER","country":"Eritrea","lat":15.3381,"lon":38.9318,"population":563930},{"name":"Sokoto","cc":"NG","country":"Nigeria","lat":13.0609,"lon":5.239,"population":563861},{"name":"Uberlândia","cc":"BR","country":"Brazil","lat":-18.9186,"lon":-48.2772,"population":563536},{"name":"Onitsha","cc":"NG","country":"Nigeria","lat":6.1454,"lon":6.7885,"population":561066},{"name":"Funabashi","cc":"JP","country":"Japan","lat":35.6931,"lon":139.9833,"population":560743},{"name":"Hamhŭng","cc":"KP","country":"North Korea","lat":39.9183,"lon":127.5364,"population":559056},{"name":"Sorocaba","cc":"BR","country":"Brazil","lat":-23.5017,"lon":-47.4581,"population":558862},{"name":"Helsinki","cc":"FI","country":"Finland","lat":60.1695,"lon":24.9355,"population":558457},{"name":"Warangal","cc":"IN","country":"India","lat":18,"lon":79.5833,"population":557802},{"name":"Santiago de Cuba","cc":"CU","country":"Cuba","lat":20.0247,"lon":-75.8219,"population":555865},{"name":"Siping","cc":"CN","country":"China","lat":43.1633,"lon":124.3686,"population":555609},{"name":"Kagoshima-shi","cc":"JP","country":"Japan","lat":31.5602,"lon":130.5581,"population":555352},{"name":"Surakarta","cc":"ID","country":"Indonesia","lat":-7.5561,"lon":110.8317,"population":555308},{"name":"Huai'an","cc":"CN","country":"China","lat":33.5886,"lon":119.0192,"population":555230},{"name":"Bhāvnagar","cc":"IN","country":"India","lat":21.7745,"lon":72.1525,"population":554978},{"name":"Mar del Plata","cc":"AR","country":"Argentina","lat":-38.0023,"lon":-57.5575,"population":553935},{"name":"Bahāwalpur","cc":"PK","country":"Pakistan","lat":29.4,"lon":71.6833,"population":552607},{"name":"Zahedan","cc":"IR","country":"Iran","lat":29.4963,"lon":60.8629,"population":551980},{"name":"Aden","cc":"YE","country":"Yemen","lat":12.7794,"lon":45.0367,"population":550602},{"name":"Nanded","cc":"IN","country":"India","lat":19.1602,"lon":77.315,"population":550564},{"name":"Orenburg","cc":"RU","country":"Russia","lat":51.7727,"lon":55.0988,"population":550204},{"name":"Changwon","cc":"KR","country":"South Korea","lat":35.2281,"lon":128.6811,"population":550000},{"name":"Pristina","cc":"XK","country":"Kosovo","lat":42.6727,"lon":21.1669,"population":550000},{"name":"Suginami-ku","cc":"JP","country":"Japan","lat":35.6996,"lon":139.6364,"population":549569},{"name":"Jiamusi","cc":"CN","country":"China","lat":46.7993,"lon":130.3163,"population":549549},{"name":"Antipolo","cc":"PH","country":"Philippines","lat":14.5864,"lon":121.1753,"population":549543},{"name":"Neijiang","cc":"CN","country":"China","lat":29.5835,"lon":105.0622,"population":546854},{"name":"Bremen","cc":"DE","country":"Germany","lat":53.0752,"lon":8.8078,"population":546501},{"name":"Albuquerque","cc":"US","country":"United States","lat":35.0845,"lon":-106.6511,"population":545852},{"name":"Meknès","cc":"MA","country":"Morocco","lat":33.8935,"lon":-5.5473,"population":545705},{"name":"Sharjah","cc":"AE","country":"United Arab Emirates","lat":25.3374,"lon":55.4121,"population":543733},{"name":"Banqiao","cc":"TW","country":"Taiwan","lat":25.0143,"lon":121.4672,"population":543342},{"name":"Sargodha","cc":"PK","country":"Pakistan","lat":32.0836,"lon":72.6711,"population":542603},{"name":"Bangui","cc":"CF","country":"Central African Republic","lat":4.3612,"lon":18.555,"population":542393},{"name":"Vilnius","cc":"LT","country":"Lithuania","lat":54.6892,"lon":25.2798,"population":542366},{"name":"Cancún","cc":"MX","country":"Mexico","lat":21.1743,"lon":-86.8466,"population":542043},{"name":"Yangzhou","cc":"CN","country":"China","lat":32.3972,"lon":119.4358,"population":539715},{"name":"Novokuznetsk","cc":"RU","country":"Russia","lat":53.7557,"lon":87.1099,"population":539616},{"name":"Kisangani","cc":"CD","country":"Congo - Kinshasa","lat":0.5153,"lon":25.191,"population":539158},{"name":"Port Said","cc":"EG","country":"Egypt","lat":31.2565,"lon":32.2841,"population":538378},{"name":"Mercin","cc":"TR","country":"Türkiye","lat":36.7953,"lon":34.6179,"population":537842},{"name":"Warri","cc":"NG","country":"Nigeria","lat":5.5167,"lon":5.75,"population":536023},{"name":"Guli","cc":"CN","country":"China","lat":28.8816,"lon":120.0331,"population":536000},{"name":"Ebute Ikorodu","cc":"NG","country":"Nigeria","lat":6.6009,"lon":3.4882,"population":535619},{"name":"Tanggu","cc":"CN","country":"China","lat":39.0211,"lon":117.6469,"population":535298},{"name":"Jiangmen","cc":"CN","country":"China","lat":22.5833,"lon":113.0833,"population":532419},{"name":"Itabashi-ku","cc":"JP","country":"Japan","lat":35.7512,"lon":139.7093,"population":531793},{"name":"Nashville","cc":"US","country":"United States","lat":36.1659,"lon":-86.7844,"population":530852},{"name":"Ta’if","cc":"SA","country":"Saudi Arabia","lat":21.2703,"lon":40.4158,"population":530848},{"name":"Beira","cc":"MZ","country":"Mozambique","lat":-19.8436,"lon":34.8389,"population":530604},{"name":"Guntūr","cc":"IN","country":"India","lat":16.2997,"lon":80.4573,"population":530577},{"name":"Touba","cc":"SN","country":"Senegal","lat":14.85,"lon":-15.8833,"population":529176},{"name":"Québec","cc":"CA","country":"Canada","lat":46.8123,"lon":-71.2145,"population":528595},{"name":"Hamadān","cc":"IR","country":"Iran","lat":34.7992,"lon":48.5146,"population":528256},{"name":"Cangzhou","cc":"CN","country":"China","lat":38.3167,"lon":116.8667,"population":527681},{"name":"San Salvador","cc":"SV","country":"El Salvador","lat":13.6894,"lon":-89.1872,"population":525990},{"name":"Santa María Chimalhuacán","cc":"MX","country":"Mexico","lat":19.4216,"lon":-98.9504,"population":525389},{"name":"Torreón","cc":"MX","country":"Mexico","lat":25.5433,"lon":-103.4176,"population":524066},{"name":"Dehradun","cc":"IN","country":"India","lat":30.3244,"lon":78.0339,"population":522081},{"name":"Cuiabá","cc":"BR","country":"Brazil","lat":-15.5961,"lon":-56.0967,"population":521934},{"name":"Cuauhtémoc","cc":"MX","country":"Mexico","lat":19.4451,"lon":-99.1461,"population":521348},{"name":"Ciudad López Mateos","cc":"MX","country":"Mexico","lat":19.5855,"lon":-99.2603,"population":521034},{"name":"Petaling Jaya","cc":"MY","country":"Malaysia","lat":3.1073,"lon":101.6067,"population":520698},{"name":"Macau","cc":"MO","country":"Macao SAR China","lat":22.2006,"lon":113.5461,"population":520400},{"name":"Bhayandar","cc":"IN","country":"India","lat":19.3016,"lon":72.8511,"population":520301},{"name":"Esenler","cc":"TR","country":"Türkiye","lat":41.0435,"lon":28.8762,"population":520235},{"name":"Ryazan’","cc":"RU","country":"Russia","lat":54.6269,"lon":39.6916,"population":520173},{"name":"Tucson","cc":"US","country":"United States","lat":32.2217,"lon":-110.9265,"population":520116},{"name":"Hamilton","cc":"CA","country":"Canada","lat":43.2501,"lon":-79.8496,"population":519949},{"name":"Tyumen","cc":"RU","country":"Russia","lat":57.1522,"lon":65.5272,"population":519119},{"name":"Durgāpur","cc":"IN","country":"India","lat":23.4996,"lon":87.3216,"population":518872},{"name":"Quilmes","cc":"AR","country":"Argentina","lat":-34.7242,"lon":-58.2526,"population":518788},{"name":"Ajmer","cc":"IN","country":"India","lat":26.4498,"lon":74.6412,"population":517911},{"name":"Lisbon","cc":"PT","country":"Portugal","lat":38.7167,"lon":-9.1333,"population":517802},{"name":"Changde","cc":"CN","country":"China","lat":29.0464,"lon":111.6783,"population":517780},{"name":"Jiaozuo","cc":"CN","country":"China","lat":35.2397,"lon":113.2331,"population":517540},{"name":"Ulhasnagar","cc":"IN","country":"India","lat":19.2167,"lon":73.15,"population":516584},{"name":"Kolhāpur","cc":"IN","country":"India","lat":16.6956,"lon":74.2317,"population":516142},{"name":"Lipetsk","cc":"RU","country":"Russia","lat":52.6031,"lon":39.5708,"population":515655},{"name":"Shiliguri","cc":"IN","country":"India","lat":26.71,"lon":88.4285,"population":515574},{"name":"Hannover","cc":"DE","country":"Germany","lat":52.3705,"lon":9.7332,"population":515140},{"name":"Eskişehir","cc":"TR","country":"Türkiye","lat":39.7767,"lon":30.5206,"population":514869},{"name":"Āzādshahr","cc":"IR","country":"Iran","lat":34.7905,"lon":48.5701,"population":514102},{"name":"Salta","cc":"AR","country":"Argentina","lat":-24.7859,"lon":-65.4117,"population":512686},{"name":"Penza","cc":"RU","country":"Russia","lat":53.2007,"lon":45.0046,"population":512602},{"name":"Tembisa","cc":"ZA","country":"South Africa","lat":-25.9964,"lon":28.2268,"population":511655},{"name":"Bilimora","cc":"IN","country":"India","lat":20.7696,"lon":72.9613,"population":510879},{"name":"Mykolayiv","cc":"UA","country":"Ukraine","lat":46.9659,"lon":31.9974,"population":510840},{"name":"Aparecida de Goiânia","cc":"BR","country":"Brazil","lat":-16.8233,"lon":-49.2439,"population":510770},{"name":"Puente Alto","cc":"CL","country":"Chile","lat":-33.6117,"lon":-70.5758,"population":510417},{"name":"Makati City","cc":"PH","country":"Philippines","lat":14.5503,"lon":121.0327,"population":510383},{"name":"Naberezhnyye Chelny","cc":"RU","country":"Russia","lat":55.7255,"lon":52.4112,"population":509870},{"name":"Wuhu","cc":"CN","country":"China","lat":31.3373,"lon":118.3735,"population":507524},{"name":"Toluca de Lerdo","cc":"MX","country":"Mexico","lat":19.2879,"lon":-99.6532,"population":505881},{"name":"Niigata-shi","cc":"JP","country":"Japan","lat":37.9022,"lon":139.0236,"population":505272},{"name":"Karol Bāgh","cc":"IN","country":"India","lat":28.6516,"lon":77.1886,"population":505241},{"name":"Leipzig","cc":"DE","country":"Germany","lat":51.3396,"lon":12.3713,"population":504971},{"name":"Kalininskiy","cc":"RU","country":"Russia","lat":59.9968,"lon":30.3899,"population":504641},{"name":"Duisburg","cc":"DE","country":"Germany","lat":51.4325,"lon":6.7652,"population":504358},{"name":"Āsansol","cc":"IN","country":"India","lat":23.6833,"lon":86.9833,"population":504271},{"name":"Göteborg","cc":"SE","country":"Sweden","lat":57.7072,"lon":11.9668,"population":504084},{"name":"Arāk","cc":"IR","country":"Iran","lat":34.0917,"lon":49.6892,"population":503647},{"name":"Astrakhan’","cc":"RU","country":"Russia","lat":46.3497,"lon":48.0408,"population":502533},{"name":"Zhuhai","cc":"CN","country":"China","lat":22.2769,"lon":113.5678,"population":501199},{"name":"Pohang","cc":"KR","country":"South Korea","lat":36.0322,"lon":129.365,"population":500000},{"name":"Nürnberg","cc":"DE","country":"Germany","lat":49.4542,"lon":11.0775,"population":499237},{"name":"Shashi","cc":"CN","country":"China","lat":30.3072,"lon":112.2447,"population":498780},{"name":"Reynosa","cc":"MX","country":"Mexico","lat":26.0768,"lon":-98.2975,"population":498654},{"name":"Makhachkala","cc":"RU","country":"Russia","lat":42.9764,"lon":47.5024,"population":497959},{"name":"Fresno","cc":"US","country":"United States","lat":36.7477,"lon":-119.7724,"population":494665},{"name":"Cimahi","cc":"ID","country":"Indonesia","lat":-6.8722,"lon":107.5425,"population":493698},{"name":"Tlaquepaque","cc":"MX","country":"Mexico","lat":20.6409,"lon":-103.2933,"population":493646},{"name":"Wuwei","cc":"CN","country":"China","lat":37.9267,"lon":102.632,"population":493092},{"name":"Jāmnagar","cc":"IN","country":"India","lat":22.4729,"lon":70.0667,"population":492056},{"name":"Aracaju","cc":"BR","country":"Brazil","lat":-10.9111,"lon":-37.0717,"population":490175},{"name":"Port Sudan","cc":"SD","country":"Sudan","lat":19.6175,"lon":37.2164,"population":489725},{"name":"Santa Fe de la Vera Cruz","cc":"AR","country":"Argentina","lat":-31.6333,"lon":-60.7,"population":489505},{"name":"San Pedro Sula","cc":"HN","country":"Honduras","lat":15.5042,"lon":-88.025,"population":489466},{"name":"Suez","cc":"EG","country":"Egypt","lat":29.9737,"lon":32.5263,"population":488125},{"name":"Dresden","cc":"DE","country":"Germany","lat":51.0509,"lon":13.7383,"population":486854},{"name":"Tomsk","cc":"RU","country":"Russia","lat":56.4977,"lon":84.9744,"population":485519},{"name":"Masina","cc":"CD","country":"Congo - Kinshasa","lat":-4.3836,"lon":15.3914,"population":485167},{"name":"Sahāranpur","cc":"IN","country":"India","lat":29.9679,"lon":77.5452,"population":484873},{"name":"Gulbarga","cc":"IN","country":"India","lat":17.3376,"lon":76.8379,"population":483615},{"name":"Bhātpāra","cc":"IN","country":"India","lat":22.8664,"lon":88.4011,"population":483129},{"name":"An Najaf al Ashraf","cc":"IQ","country":"Iraq","lat":31.9892,"lon":44.3291,"population":482576},{"name":"Feira de Santana","cc":"BR","country":"Brazil","lat":-12.2667,"lon":-38.9667,"population":481911},{"name":"Shah Alam","cc":"MY","country":"Malaysia","lat":3.0851,"lon":101.5328,"population":481654},{"name":"Mariupol","cc":"UA","country":"Ukraine","lat":47.0951,"lon":37.5413,"population":481626},{"name":"Himeji","cc":"JP","country":"Japan","lat":34.8167,"lon":134.7,"population":481493},{"name":"Tuxtla Gutiérrez","cc":"MX","country":"Mexico","lat":16.7547,"lon":-93.1148,"population":481128},{"name":"Homyel’","cc":"BY","country":"Belarus","lat":52.4345,"lon":30.9754,"population":480951},{"name":"Vijongbu","cc":"KR","country":"South Korea","lat":37.7415,"lon":127.0474,"population":479141},{"name":"East London","cc":"ZA","country":"South Africa","lat":-33.0153,"lon":27.9116,"population":478676},{"name":"Yazd","cc":"IR","country":"Iran","lat":31.8972,"lon":54.3675,"population":477905},{"name":"Hargeysa","cc":"SO","country":"Somalia","lat":9.56,"lon":44.065,"population":477876},{"name":"Siālkot","cc":"PK","country":"Pakistan","lat":32.5101,"lon":74.5431,"population":477396},{"name":"Kemerovo","cc":"RU","country":"Russia","lat":55.3333,"lon":86.0833,"population":477090},{"name":"Yichang","cc":"CN","country":"China","lat":30.7144,"lon":111.2847,"population":476725},{"name":"Hwaseong","cc":"KR","country":"South Korea","lat":37.2068,"lon":126.8169,"population":476297},{"name":"Cuautitlán Izcalli","cc":"MX","country":"Mexico","lat":19.6439,"lon":-99.216,"population":475179},{"name":"Yinchuan","cc":"CN","country":"China","lat":38.4681,"lon":106.2731,"population":475101},{"name":"Skopje","cc":"MK","country":"North Macedonia","lat":41.9965,"lon":21.4314,"population":474889},{"name":"Vereeniging","cc":"ZA","country":"South Africa","lat":-26.6731,"lon":27.9262,"population":474681},{"name":"The Hague","cc":"NL","country":"Netherlands","lat":52.0767,"lon":4.2986,"population":474292},{"name":"Mixco","cc":"GT","country":"Guatemala","lat":14.6333,"lon":-90.6064,"population":473080},{"name":"Lyon","cc":"FR","country":"France","lat":45.7485,"lon":4.8467,"population":472317},{"name":"Londrina","cc":"BR","country":"Brazil","lat":-23.3103,"lon":-51.1628,"population":471832},{"name":"Jiaojiang","cc":"CN","country":"China","lat":28.6803,"lon":121.4428,"population":470804},{"name":"Matsudo","cc":"JP","country":"Japan","lat":35.7833,"lon":139.9,"population":470277},{"name":"Juiz de Fora","cc":"BR","country":"Brazil","lat":-21.7642,"lon":-43.3503,"population":470193},{"name":"Liverpool","cc":"GB","country":"United Kingdom","lat":53.4106,"lon":-2.9779,"population":468945},{"name":"Nishinomiya","cc":"JP","country":"Japan","lat":34.7167,"lon":135.3333,"population":468925},{"name":"Tula","cc":"RU","country":"Russia","lat":54.1961,"lon":37.6182,"population":468825},{"name":"Staten Island","cc":"US","country":"United States","lat":40.5623,"lon":-74.1399,"population":468730},{"name":"Kawaguchi","cc":"JP","country":"Japan","lat":35.8052,"lon":139.7107,"population":468565},{"name":"Sacramento","cc":"US","country":"United States","lat":38.5816,"lon":-121.4944,"population":466488},{"name":"Zunyi","cc":"CN","country":"China","lat":27.6867,"lon":106.9072,"population":466292},{"name":"Jiaxing","cc":"CN","country":"China","lat":30.7522,"lon":120.75,"population":466101},{"name":"Belford Roxo","cc":"BR","country":"Brazil","lat":-22.7642,"lon":-43.3994,"population":466096},{"name":"Jammu","cc":"IN","country":"India","lat":32.7357,"lon":74.8691,"population":465567},{"name":"Liaoyuan","cc":"CN","country":"China","lat":42.9036,"lon":125.1358,"population":465249},{"name":"Kananga","cc":"CD","country":"Congo - Kinshasa","lat":-5.8962,"lon":22.4166,"population":463546},{"name":"Bloemfontein","cc":"ZA","country":"South Africa","lat":-29.1211,"lon":26.214,"population":463064},{"name":"Xiangyang","cc":"CN","country":"China","lat":32.0422,"lon":112.1448,"population":462956},{"name":"Long Beach","cc":"US","country":"United States","lat":33.767,"lon":-118.1892,"population":462257},{"name":"Gdańsk","cc":"PL","country":"Poland","lat":54.3521,"lon":18.6464,"population":461865},{"name":"Calabar","cc":"NG","country":"Nigeria","lat":4.9517,"lon":8.322,"population":461796},{"name":"Dadukou","cc":"CN","country":"China","lat":26.5479,"lon":101.7054,"population":461513},{"name":"Joinville","cc":"BR","country":"Brazil","lat":-26.3044,"lon":-48.8456,"population":461304},{"name":"Ḩamāh","cc":"SY","country":"Syria","lat":35.1318,"lon":36.7578,"population":460602},{"name":"Antwerpen","cc":"BE","country":"Belgium","lat":51.2199,"lon":4.4035,"population":459805},{"name":"Kansas City","cc":"US","country":"United States","lat":39.0997,"lon":-94.5786,"population":459787},{"name":"Kanazawa-shi","cc":"JP","country":"Japan","lat":36.5944,"lon":136.6256,"population":458937},{"name":"Ichikawa","cc":"JP","country":"Japan","lat":35.7197,"lon":139.9247,"population":458240},{"name":"Karabağlar","cc":"TR","country":"Türkiye","lat":38.374,"lon":27.1352,"population":458000},{"name":"Zamboanga","cc":"PH","country":"Philippines","lat":6.9103,"lon":122.0739,"population":457623},{"name":"Kirov","cc":"RU","country":"Russia","lat":58.5967,"lon":49.6601,"population":457383},{"name":"Ujjain","cc":"IN","country":"India","lat":23.1824,"lon":75.7764,"population":457346},{"name":"Kota Kinabalu","cc":"MY","country":"Malaysia","lat":5.9749,"lon":116.0724,"population":457326},{"name":"Victoria de Durango","cc":"MX","country":"Mexico","lat":24.0203,"lon":-104.6576,"population":457140},{"name":"Niterói","cc":"BR","country":"Brazil","lat":-22.8833,"lon":-43.1036,"population":456456},{"name":"Hengshui","cc":"CN","country":"China","lat":37.7322,"lon":115.7011,"population":456356},{"name":"Tabūk","cc":"SA","country":"Saudi Arabia","lat":28.3833,"lon":36.5833,"population":455450},{"name":"Pontianak","cc":"ID","country":"Indonesia","lat":-0.0333,"lon":109.3333,"population":455173},{"name":"Leeds","cc":"GB","country":"United Kingdom","lat":53.7965,"lon":-1.5478,"population":455123},{"name":"Namp’o","cc":"KP","country":"North Korea","lat":38.7375,"lon":125.4078,"population":455000},{"name":"Bacolod City","cc":"PH","country":"Philippines","lat":10.6667,"lon":122.95,"population":454898},{"name":"São João de Meriti","cc":"BR","country":"Brazil","lat":-22.8039,"lon":-43.3722,"population":454849},{"name":"Mansilingan","cc":"PH","country":"Philippines","lat":10.6311,"lon":122.9789,"population":454150},{"name":"Rāmgundam","cc":"IN","country":"India","lat":18.8008,"lon":79.4521,"population":452261},{"name":"Luhans’k","cc":"UA","country":"Ukraine","lat":48.5671,"lon":39.3171,"population":452000},{"name":"Manado","cc":"ID","country":"Indonesia","lat":1.487,"lon":124.8455,"population":451893},{"name":"Karagandy","cc":"KZ","country":"Kazakhstan","lat":49.8333,"lon":73.1658,"population":451800},{"name":"Jining","cc":"CN","country":"China","lat":35.405,"lon":116.5814,"population":450327},{"name":"Constantine","cc":"DZ","country":"Algeria","lat":36.365,"lon":6.6147,"population":450097},{"name":"Wenshan City","cc":"CN","country":"China","lat":23.3631,"lon":104.2505,"population":450000},{"name":"Utsunomiya-shi","cc":"JP","country":"Japan","lat":36.5658,"lon":139.8836,"population":449865},{"name":"Heroica Matamoros","cc":"MX","country":"Mexico","lat":25.8797,"lon":-97.5042,"population":449815},{"name":"Şanlıurfa","cc":"TR","country":"Türkiye","lat":37.1671,"lon":38.7939,"population":449549},{"name":"Chengde","cc":"CN","country":"China","lat":40.9725,"lon":117.9361,"population":449325},{"name":"Xuchang","cc":"CN","country":"China","lat":34.0167,"lon":113.8167,"population":449258},{"name":"Ōita-shi","cc":"JP","country":"Japan","lat":33.2381,"lon":131.6125,"population":448907},{"name":"Katsushika-ku","cc":"JP","country":"Japan","lat":35.7333,"lon":139.85,"population":448243},{"name":"Venustiano Carranza","cc":"MX","country":"Mexico","lat":19.4429,"lon":-99.0972,"population":447459},{"name":"San Juan","cc":"AR","country":"Argentina","lat":-31.5375,"lon":-68.5364,"population":447048},{"name":"Sheffield","cc":"GB","country":"United Kingdom","lat":53.383,"lon":-1.4659,"population":447047},{"name":"Cheboksary","cc":"RU","country":"Russia","lat":56.1322,"lon":47.2519,"population":446781},{"name":"Boksburg","cc":"ZA","country":"South Africa","lat":-26.212,"lon":28.2596,"population":445168},{"name":"Cagayan de Oro","cc":"PH","country":"Philippines","lat":8.4822,"lon":124.6472,"population":445103},{"name":"Matsuyama-shi","cc":"JP","country":"Japan","lat":33.8392,"lon":132.7657,"population":443322},{"name":"San Nicolás de los Garza","cc":"MX","country":"Mexico","lat":25.7417,"lon":-100.3022,"population":443273},{"name":"Kōtō-ku","cc":"JP","country":"Japan","lat":35.6667,"lon":139.8167,"population":442271},{"name":"Amagasaki","cc":"JP","country":"Japan","lat":34.7167,"lon":135.4167,"population":442173},{"name":"Carrefour","cc":"HT","country":"Haiti","lat":18.5411,"lon":-72.3992,"population":442156},{"name":"Shyamnagar","cc":"IN","country":"India","lat":22.8333,"lon":88.3667,"population":441956},{"name":"Dasmariñas","cc":"PH","country":"Philippines","lat":14.3294,"lon":120.9367,"population":441876},{"name":"Malatya","cc":"TR","country":"Türkiye","lat":38.3502,"lon":38.3167,"population":441805},{"name":"Nangi","cc":"IN","country":"India","lat":22.5083,"lon":88.2153,"population":440894},{"name":"Pereira","cc":"CO","country":"Colombia","lat":4.8133,"lon":-75.6961,"population":440118},{"name":"Kozhikode","cc":"IN","country":"India","lat":11.248,"lon":75.7804,"population":439922},{"name":"Mesa","cc":"US","country":"United States","lat":33.4223,"lon":-111.8226,"population":439041},{"name":"Mawlamyine","cc":"MM","country":"Myanmar (Burma)","lat":16.4905,"lon":97.6283,"population":438861},{"name":"Virginia Beach","cc":"US","country":"United States","lat":36.8529,"lon":-75.978,"population":437994},{"name":"Iquitos","cc":"PE","country":"Peru","lat":-3.7491,"lon":-73.2538,"population":437620},{"name":"Kurashiki","cc":"JP","country":"Japan","lat":34.5833,"lon":133.7667,"population":437581},{"name":"Sultangazi","cc":"TR","country":"Türkiye","lat":41.1065,"lon":28.8685,"population":436935},{"name":"Garoua","cc":"CM","country":"Cameroon","lat":9.3,"lon":13.4,"population":436899},{"name":"Murcia","cc":"ES","country":"Spain","lat":37.987,"lon":-1.13,"population":436870},{"name":"Mwanza","cc":"TZ","country":"Tanzania","lat":-2.5167,"lon":32.9,"population":436801},{"name":"Uyo","cc":"NG","country":"Nigeria","lat":5.0513,"lon":7.9335,"population":436606},{"name":"Bei’an","cc":"CN","country":"China","lat":48.2667,"lon":126.6,"population":436444},{"name":"Tirunelveli","cc":"IN","country":"India","lat":8.7252,"lon":77.6845,"population":435844},{"name":"Edinburgh","cc":"GB","country":"United Kingdom","lat":55.9521,"lon":-3.1965,"population":435791},{"name":"Kousséri","cc":"CM","country":"Cameroon","lat":12.0769,"lon":15.0306,"population":435547},{"name":"Mālegaon","cc":"IN","country":"India","lat":20.5537,"lon":74.5288,"population":435362},{"name":"Kaliningrad","cc":"RU","country":"Russia","lat":54.7065,"lon":20.511,"population":434954},{"name":"Karbala","cc":"IQ","country":"Iraq","lat":32.616,"lon":44.0249,"population":434450},{"name":"Ananindeua","cc":"BR","country":"Brazil","lat":-1.3656,"lon":-48.3722,"population":433956},{"name":"Balikpapan","cc":"ID","country":"Indonesia","lat":-1.2675,"lon":116.8289,"population":433866},{"name":"Brampton","cc":"CA","country":"Canada","lat":43.6834,"lon":-79.7663,"population":433806},{"name":"Toulouse","cc":"FR","country":"France","lat":43.6043,"lon":1.4437,"population":433055},{"name":"Namangan","cc":"UZ","country":"Uzbekistan","lat":40.9983,"lon":71.6726,"population":432456},{"name":"Katsina","cc":"NG","country":"Nigeria","lat":12.9894,"lon":7.6006,"population":432149},{"name":"Welkom","cc":"ZA","country":"South Africa","lat":-27.9774,"lon":26.7351,"population":431944},{"name":"Santa Marta","cc":"CO","country":"Colombia","lat":11.2408,"lon":-74.199,"population":431781},{"name":"Al Maḩallah al Kubrá","cc":"EG","country":"Egypt","lat":30.9745,"lon":31.165,"population":431052},{"name":"Bristol","cc":"GB","country":"United Kingdom","lat":51.4552,"lon":-2.5966,"population":430713},{"name":"Jālgaon","cc":"IN","country":"India","lat":21.0101,"lon":75.5684,"population":429298},{"name":"Yokosuka","cc":"JP","country":"Japan","lat":35.2836,"lon":139.6672,"population":428992},{"name":"Akola","cc":"IN","country":"India","lat":20.7096,"lon":76.9981,"population":428857},{"name":"Belgaum","cc":"IN","country":"India","lat":15.8521,"lon":74.5045,"population":428720},{"name":"East Jerusalem","cc":"PS","country":"Palestinian Territories","lat":31.7834,"lon":35.2339,"population":428304},{"name":"Luqiao","cc":"CN","country":"China","lat":28.5802,"lon":121.3749,"population":427890},{"name":"Bryansk","cc":"RU","country":"Russia","lat":53.2521,"lon":34.3717,"population":427236},{"name":"Maltepe","cc":"TR","country":"Türkiye","lat":40.9357,"lon":29.1551,"population":427040},{"name":"Azcapotzalco","cc":"MX","country":"Mexico","lat":19.487,"lon":-99.1859,"population":425298},{"name":"Xalapa de Enríquez","cc":"MX","country":"Mexico","lat":19.5333,"lon":-96.9167,"population":425148},{"name":"Barcelona","cc":"VE","country":"Venezuela","lat":10.1333,"lon":-64.7,"population":424795},{"name":"Chaozhou","cc":"CN","country":"China","lat":23.6651,"lon":116.6379,"population":424787},{"name":"Ado-Ekiti","cc":"NG","country":"Nigeria","lat":7.621,"lon":5.2215,"population":424340},{"name":"Bratislava","cc":"SK","country":"Slovakia","lat":48.1482,"lon":17.1067,"population":423737},{"name":"Gaya","cc":"IN","country":"India","lat":24.7969,"lon":85.0039,"population":423692},{"name":"Udaipur","cc":"IN","country":"India","lat":24.5712,"lon":73.6918,"population":422784},{"name":"Likasi","cc":"CD","country":"Congo - Kinshasa","lat":-10.9814,"lon":26.7333,"population":422414},{"name":"Luxor","cc":"EG","country":"Egypt","lat":25.6989,"lon":32.6421,"population":422407},{"name":"Ibagué","cc":"CO","country":"Colombia","lat":4.4389,"lon":-75.2322,"population":421685},{"name":"Shaoxing","cc":"CN","country":"China","lat":30.011,"lon":120.5715,"population":421283},{"name":"Ivanovo","cc":"RU","country":"Russia","lat":56.9972,"lon":40.9714,"population":420839},{"name":"Erzurum","cc":"TR","country":"Türkiye","lat":39.9086,"lon":41.2769,"population":420691},{"name":"Akure","cc":"NG","country":"Nigeria","lat":7.2526,"lon":5.1931,"population":420594},{"name":"Asyūţ","cc":"EG","country":"Egypt","lat":27.181,"lon":31.1837,"population":420585},{"name":"Jambi City","cc":"ID","country":"Indonesia","lat":-1.6,"lon":103.6167,"population":420323},{"name":"Al Manşūrah","cc":"EG","country":"Egypt","lat":31.0364,"lon":31.3807,"population":420195},{"name":"Atlanta","cc":"US","country":"United States","lat":33.749,"lon":-84.388,"population":420003},{"name":"Korba","cc":"IN","country":"India","lat":22.3458,"lon":82.6963,"population":419146},{"name":"Bokāro","cc":"IN","country":"India","lat":23.7873,"lon":85.9562,"population":418533},{"name":"San Juan","cc":"PR","country":"Puerto Rico","lat":18.4663,"lon":-66.1057,"population":418140},{"name":"Kolwezi","cc":"CD","country":"Congo - Kinshasa","lat":-10.7148,"lon":25.4667,"population":418000},{"name":"Auckland","cc":"NZ","country":"New Zealand","lat":-36.8667,"lon":174.7667,"population":417910},{"name":"Sukkur","cc":"PK","country":"Pakistan","lat":27.7052,"lon":68.8574,"population":417767},{"name":"Mangalore","cc":"IN","country":"India","lat":12.9172,"lon":74.856,"population":417387},{"name":"Luohe","cc":"CN","country":"China","lat":33.5717,"lon":114.0353,"population":417356},{"name":"Colorado Springs","cc":"US","country":"United States","lat":38.8339,"lon":-104.8214,"population":416427},{"name":"Shymkent","cc":"KZ","country":"Kazakhstan","lat":42.3,"lon":69.6,"population":414032},{"name":"Yangquan","cc":"CN","country":"China","lat":37.8575,"lon":113.5633,"population":413394},{"name":"Magnitogorsk","cc":"RU","country":"Russia","lat":53.4186,"lon":59.0472,"population":413351},{"name":"Jhānsi","cc":"IN","country":"India","lat":25.4545,"lon":78.5822,"population":412927},{"name":"Florianópolis","cc":"BR","country":"Brazil","lat":-27.5967,"lon":-48.5492,"population":412724},{"name":"Wandsbek","cc":"DE","country":"Germany","lat":53.5667,"lon":10.1,"population":411422},{"name":"Santos","cc":"BR","country":"Brazil","lat":-23.9608,"lon":-46.3336,"population":411403},{"name":"Maturín","cc":"VE","country":"Venezuela","lat":9.75,"lon":-63.1767,"population":410972},{"name":"Ardabīl","cc":"IR","country":"Iran","lat":38.2498,"lon":48.2933,"population":410753},{"name":"Nagasaki-shi","cc":"JP","country":"Japan","lat":32.7447,"lon":129.8736,"population":410204},{"name":"Chaoyang","cc":"CN","country":"China","lat":41.5703,"lon":120.4586,"population":410005},{"name":"Gaza","cc":"PS","country":"Palestinian Territories","lat":31.5,"lon":34.4667,"population":410000},{"name":"Kursk","cc":"RU","country":"Russia","lat":51.7373,"lon":36.1874,"population":409431},{"name":"Kitchener","cc":"CA","country":"Canada","lat":43.4254,"lon":-80.5112,"population":409112},{"name":"Omaha","cc":"US","country":"United States","lat":41.2586,"lon":-95.9378,"population":408958},{"name":"Al Ain","cc":"AE","country":"United Arab Emirates","lat":24.1917,"lon":55.7606,"population":408733},{"name":"Jeju","cc":"KR","country":"South Korea","lat":33.5097,"lon":126.5219,"population":408364},{"name":"Panamá","cc":"PA","country":"Panama","lat":8.9936,"lon":-79.5197,"population":408168},{"name":"Shiyan","cc":"CN","country":"China","lat":32.5667,"lon":110.7833,"population":408055},{"name":"Szczecin","cc":"PL","country":"Poland","lat":53.4289,"lon":14.553,"population":407811},{"name":"Biên Hòa","cc":"VN","country":"Vietnam","lat":10.95,"lon":106.8167,"population":407208},{"name":"Villa Nueva","cc":"GT","country":"Guatemala","lat":14.5269,"lon":-90.5875,"population":406830},{"name":"Ribeirão das Neves","cc":"BR","country":"Brazil","lat":-19.7669,"lon":-44.0867,"population":406802},{"name":"Hirakata","cc":"JP","country":"Japan","lat":34.8135,"lon":135.6491,"population":406331},{"name":"Denpasar","cc":"ID","country":"Indonesia","lat":-8.65,"lon":115.2167,"population":405923},{"name":"Oujda","cc":"MA","country":"Morocco","lat":34.6805,"lon":-1.9076,"population":405253},{"name":"Tanda","cc":"EG","country":"Egypt","lat":30.7885,"lon":31.0019,"population":404901},{"name":"Newcastle","cc":"ZA","country":"South Africa","lat":-27.758,"lon":29.9318,"population":404838},{"name":"Xochimilco","cc":"MX","country":"Mexico","lat":19.2579,"lon":-99.1051,"population":404458},{"name":"Nellore","cc":"IN","country":"India","lat":14.4536,"lon":79.9867,"population":404158},{"name":"Hsinchu","cc":"TW","country":"Taiwan","lat":24.8036,"lon":120.9686,"population":404109},{"name":"Raleigh","cc":"US","country":"United States","lat":35.7721,"lon":-78.6386,"population":403892},{"name":"Jixi","cc":"CN","country":"China","lat":45.3011,"lon":130.9572,"population":403759},